[
        {
            "District": "අම්පාර",
            "Name": "Orryngo Pharmacy",
            "Address": "ප්රධාන වීදිය, අද්ලයිචෙනෙයි",
            "Phone": "+94672277036",
            "WhatsApp": "+94772660787",
            "Viber": "+94772660787",
            "MoH": "අඩලිකහනයි",
            "Latitude": "7.2481389",
            "Longitude": "81.8521759"
        },
        {
            "District": "අම්පාර",
            "Name": "Osu Sala, Akkaraipattu",
            "Address": "74, TD / 02, අක්කරයිපට්ටු",
            "Phone": "+94672057625",
            "WhatsApp": "+94773710480",
            "Viber": "+94773710480",
            "MoH": "අක්කරයිපට්ටු",
            "Latitude": "7.2223386",
            "Longitude": "81.8501348"
        },
        {
            "District": "අම්පාර",
            "Name": "BIO pharmacy",
            "Address": "ප්රධාන වීදි අක්කරයිපට්ටු",
            "Phone": "+94770367674",
            "WhatsApp": "+94770367674",
            "Viber": "",
            "MoH": "අක්කරයිපට්ටු",
            "Latitude": "7.2332732",
            "Longitude": "81.8516916"
        },
        {
            "District": "අම්පාර",
            "Name": "SMS pharmacy",
            "Address": "අක්කරයිපට්ටු",
            "Phone": "+94672279494",
            "WhatsApp": "+94755322552",
            "Viber": "+94755322552",
            "MoH": "අක්කරයිපට්ටු",
            "Latitude": "7.2200621",
            "Longitude": "81.8499396"
        },
        {
            "District": "අම්පාර",
            "Name": "Welcome pharmacy",
            "Address": "අංක 218, ප්රධාන වීදිය, අක්කරයිපට්ටු",
            "Phone": "+94777197333",
            "WhatsApp": "+94777197333",
            "Viber": "",
            "MoH": "අක්කරයිපට්ටු",
            "Latitude": "7.2207575",
            "Longitude": "81.8499442"
        },
        {
            "District": "අම්පාර",
            "Name": "Zam Zam Pharmacy",
            "Address": "ප්රධාන වීදිය, අක්කරයිපට්ටු",
            "Phone": "+94672277698",
            "WhatsApp": "+94777559440",
            "Viber": "+94777559440",
            "MoH": "අක්කරයිපට්ටු",
            "Latitude": "7.2209981",
            "Longitude": "81.8498255"
        },
        {
            "District": "අම්පාර",
            "Name": "Nova Pharmacy",
            "Address": "104 / ප්රධාන වීදිය, අක්කරයිපට්ටු",
            "Phone": "+94771358848",
            "WhatsApp": "+94772551276",
            "Viber": "+94772551276",
            "MoH": "අක්කරයිපට්ටු",
            "Latitude": "7.2280536",
            "Longitude": "81.8504009"
        },
        {
            "District": "අම්පාර",
            "Name": "Rajya Osusala",
            "Address": "පන්සල් හන්දිය, ඩී. එස්. සේනානායක වීදිය, අම්පාරා",
            "Phone": "+94632223088",
            "WhatsApp": "+94701902754",
            "Viber": "+94701902754",
            "MoH": "අම්පාර",
            "Latitude": "7.2912744",
            "Longitude": "81.6794386"
        },
        {
            "District": "අම්පාර",
            "Name": "Prabhoda Pharmacy",
            "Address": "ප්රෆෝදස් හොස්පිට්ල්ස් පුද්ගලික සමාගම, පණ්ඩුකබයා එම්ඩබ්ලිව්, අම්පාරා",
            "Phone": "+94635674013",
            "WhatsApp": "+94760747526",
            "Viber": "+94714913329",
            "MoH": "අම්පාර",
            "Latitude": "7.2916447",
            "Longitude": "81.6754234"
        },
        {
            "District": "අම්පාර",
            "Name": "Cargills Food City Pharmacy",
            "Address": "අම්පාර",
            "Phone": "+94632222372",
            "WhatsApp": "+94772781305",
            "Viber": "+94772781305",
            "MoH": "අම්පාර",
            "Latitude": "7.2914037",
            "Longitude": "81.6753017"
        },
        {
            "District": "අම්පාර",
            "Name": "Oslaka Pharmacy",
            "Address": "දෙහියාතකන්දිය",
            "Phone": "+94705259783",
            "WhatsApp": "+94718492104",
            "Viber": "+94718492104",
            "MoH": "දෙහියාතකන්දිය",
            "Latitude": "7.2949611",
            "Longitude": "80.2372923"
        },
        {
            "District": "අම්පාර",
            "Name": "Arokya Pharmacy and Grocery",
            "Address": "299, බැටිකෝලෝවා පාර, කල්මුනායි",
            "Phone": "+94774754678",
            "WhatsApp": "+94774754668",
            "Viber": "+94774754668",
            "MoH": "කල්මුනායි",
            "Latitude": "7.4204487",
            "Longitude": "81.82093"
        },
        {
            "District": "අම්පාර",
            "Name": "New Harcourts Pharmacy",
            "Address": "266/4, ප්රධාන වීදිය, කල්මුනායි",
            "Phone": "+94672226292",
            "WhatsApp": "+94773815005",
            "Viber": "+94773815005",
            "MoH": "කල්මුනායි",
            "Latitude": "7.4039225",
            "Longitude": "81.8311393"
        },
        {
            "District": "අම්පාර",
            "Name": "T.M.M. Pharmacy",
            "Address": "අංක 446, ප්රධාන වීදිය, කල්මුනි",
            "Phone": "+94777999772",
            "WhatsApp": "+94777999772",
            "Viber": "",
            "MoH": "කල්මුනායි",
            "Latitude": "7.4144035",
            "Longitude": "81.8260633"
        },
        {
            "District": "අම්පාර",
            "Name": "Aboo Pharmacy",
            "Address": "310, ප්රධාන වීදිය, නට්පිස්මුනායි 02, කල්මුනායි",
            "Phone": "+94755195545",
            "WhatsApp": "+94755195545",
            "Viber": "+94755195545",
            "MoH": "කල්මුනායි උතුර",
            "Latitude": "7.413577",
            "Longitude": "81.8263387"
        },
        {
            "District": "අම්පාර",
            "Name": "City Pharmacy",
            "Address": "ප්රධාන වීදිය, කල්මුනායි",
            "Phone": "+94773508343",
            "WhatsApp": "+94773508343",
            "Viber": "+94773508343",
            "MoH": "කල්මුනායි දකුණ",
            "Latitude": "7.4056647",
            "Longitude": "81.8311366"
        },
        {
            "District": "අම්පාර",
            "Name": "Unico Pharmacy",
            "Address": "මහඔය",
            "Phone": "+94776912014",
            "WhatsApp": "+94705259783",
            "Viber": "+94705259783",
            "MoH": "මහඔය",
            "Latitude": "7.5315865",
            "Longitude": "81.3564869"
        },
        {
            "District": "අම්පාර",
            "Name": "Best Medical",
            "Address": "අංක 31 ප්රධාන වීදිය, නින්ටාවූර්",
            "Phone": "+94776688664",
            "WhatsApp": "+94776688664",
            "Viber": "",
            "MoH": "නින්ටාවූර්",
            "Latitude": "7.3314137",
            "Longitude": "81.8333656"
        },
        {
            "District": "අම්පාර",
            "Name": "Osu Sala, Ninthavur",
            "Address": "ප්රධාන වීදිය, නින්ටාවූර්.",
            "Phone": "",
            "WhatsApp": "+94714442638",
            "Viber": "+94714442638",
            "MoH": "නින්ටාවූර්",
            "Latitude": "7.3564128",
            "Longitude": "81.8455968"
        },
        {
            "District": "අම්පාර",
            "Name": "SSI Pharmacy & Costemics",
            "Address": "අංක 83, බැංකු පාර, නින්ටාවූර් 13",
            "Phone": "+94672250826",
            "WhatsApp": "+94788423501",
            "Viber": "+94777845297",
            "MoH": "නින්ටාවූර්",
            "Latitude": "7.355904",
            "Longitude": "81.847025"
        },
        {
            "District": "අම්පාර",
            "Name": "New Ruhunu Pharmacy",
            "Address": "පාදියතලාව",
            "Phone": "+94713386560",
            "WhatsApp": "+94713386560",
            "Viber": "+94766424005",
            "MoH": "පාදියතලාව",
            "Latitude": "7.403995",
            "Longitude": "81.243568"
        },
        {
            "District": "අම්පාර",
            "Name": "Jesfa Medicals",
            "Address": "පොට්ටුවිල්",
            "Phone": "+94776691089",
            "WhatsApp": "+94776691089",
            "Viber": "",
            "MoH": "පොට්ටුවිල්",
            "Latitude": "6.8719992",
            "Longitude": "81.822567"
        },
        {
            "District": "අම්පාර",
            "Name": "Imaad Pharmacy & Channelling",
            "Address": "අංක 554, ප්රධාන වීදිය, ශාන්තමරුතු -7",
            "Phone": "+94672222856",
            "WhatsApp": "+94773678090",
            "Viber": "+94773678090",
            "MoH": "ශාන්තමරුතු",
            "Latitude": "7.3941435",
            "Longitude": "81.8345806"
        },
        {
            "District": "අම්පාර",
            "Name": "Al-Bayan Pharmacy",
            "Address": "අංක 91, ප්රධාන වීදිය, සම්මන්තුරේ",
            "Phone": "+94776153088",
            "WhatsApp": "+94776153088",
            "Viber": "",
            "MoH": "සමන්තුරෙයි",
            "Latitude": "7.3574841",
            "Longitude": "81.7951054"
        },
        {
            "District": "අම්පාර",
            "Name": "Jafas pharmacy",
            "Address": "හිජ්රා හන්දිය, සම්මතුරේ",
            "Phone": "+94779047078",
            "WhatsApp": "+94779047078",
            "Viber": "+94779047078",
            "MoH": "සමන්තුරෙයි",
            "Latitude": "7.3620931",
            "Longitude": "81.8036292"
        },
        {
            "District": "අම්පාර",
            "Name": "Medicare Pharmacy",
            "Address": "රෝහල් පාර, සමන්තුරෙයි",
            "Phone": "+94672260129",
            "WhatsApp": "+94777863324",
            "Viber": "+94777863324",
            "MoH": "සමන්තුරෙයි",
            "Latitude": "7.3687421",
            "Longitude": "81.8080684"
        },
        {
            "District": "අම්පාර",
            "Name": "APS Pharmacy",
            "Address": "ප්රධාන වීදිය, තිරුකොවිල්",
            "Phone": "+94755231046",
            "WhatsApp": "+94755231046",
            "Viber": "",
            "MoH": "තිරුකොවිල්",
            "Latitude": "",
            "Longitude": ""
        },
        {
            "District": "අම්පාර",
            "Name": "S.C. Pharmacy",
            "Address": "ප්රධාන වීදිය, තිරුකොවිල්",
            "Phone": "+94750502995",
            "WhatsApp": "+94750502995",
            "Viber": "+94750502995",
            "MoH": "තිරුකොවිල්",
            "Latitude": "7.1157493",
            "Longitude": "81.8500133"
        },
        {
            "District": "අම්පාර",
            "Name": "New Gampaha Pharmacy",
            "Address": "උහානා",
            "Phone": "+94772778261",
            "WhatsApp": "+94772778261",
            "Viber": "+94772778261",
            "MoH": "උහානා",
            "Latitude": "7.3633338",
            "Longitude": "81.6349876"
        },
        {
            "District": "අම්පාර",
            "Name": "Osada Pharmacy",
            "Address": "ගොනගල",
            "Phone": "+94766754140",
            "WhatsApp": "+94755389851",
            "Viber": "+94755389851",
            "MoH": "උහානා",
            "Latitude": "6.2247153",
            "Longitude": "80.2356772"
        },
        {
            "District": "අම්පාර",
            "Name": "Osada Pharmacy",
            "Address": "උහානා",
            "Phone": "+94772451749",
            "WhatsApp": "+94772451749",
            "Viber": "+94772451749",
            "MoH": "උහානා",
            "Latitude": "7.2315926",
            "Longitude": "79.9722602"
        },
        {
            "District": "අම්පාර",
            "Name": "Ajith Pharmacy",
            "Address": "උහානා",
            "Phone": "+94772778261",
            "WhatsApp": "+94772778261",
            "Viber": "+94772778261",
            "MoH": "උහානා",
            "Latitude": "7.115744",
            "Longitude": "81.852202"
        },
        {
            "District": "අම්පාර",
            "Name": "Medicare Pharmacy",
            "Address": "හින්ගුරාන",
            "Phone": "+94773350347",
            "WhatsApp": "+94775461886",
            "Viber": "+94775461886",
            "MoH": "දමා",
            "Latitude": "7.2284165",
            "Longitude": "81.6728089"
        },
        {
            "District": "අනුරාධපුර",
            "Name": "Rajya Osusala",
            "Address": "414/4, 2 වන අදියර, ගොඩගේ එම්. අනුරදාපුර",
            "Phone": "+94252227488",
            "WhatsApp": "+94701902732",
            "Viber": "+94701902732",
            "MoH": "අනුරාධපුර",
            "Latitude": "8.3262531",
            "Longitude": "80.409878"
        },
        {
            "District": "අනුරාධපුර",
            "Name": "New Sriya Pharmacy",
            "Address": "කෙකිරාවා පාර, ගැලෙන්බින්දුනුවේවා",
            "Phone": "+94772581959",
            "WhatsApp": "+94772581959",
            "Viber": "",
            "MoH": "Galenbindunuwewa",
            "Latitude": "8.2364716",
            "Longitude": "80.3510437"
        },
        {
            "District": "අනුරාධපුර",
            "Name": "Thejaka Pharmacy",
            "Address": "අංක 117, කෙකිරාවා පාර, ගැලෙන්බින්දුනේවා",
            "Phone": "+94764832600",
            "WhatsApp": "+94764832600",
            "Viber": "",
            "MoH": "Galenbindunuwewa",
            "Latitude": "8.2323774",
            "Longitude": "80.3532266"
        },
        {
            "District": "අනුරාධපුර",
            "Name": "Widuri Pharmacy",
            "Address": "රෝහලට ආසන්නයේ යක්ල්ල, මෙතුගොඩවේවා",
            "Phone": "+94715383578",
            "WhatsApp": "+94715383578",
            "Viber": "",
            "MoH": "Galenbindunuwewa",
            "Latitude": "8.2157061",
            "Longitude": "80.7023799"
        },
        {
            "District": "අනුරාධපුර",
            "Name": "New Sharn Pharmacy & Grocery",
            "Address": "අංක 06, නව සාප්පු සංකීර්ණය, ගල්නෙවා",
            "Phone": "+94779283511",
            "WhatsApp": "+94713427040",
            "Viber": "",
            "MoH": "ගල්නෙවා",
            "Latitude": "8.0369211",
            "Longitude": "80.4725346"
        },
        {
            "District": "අනුරාධපුර",
            "Name": "Sakura Pharmacy & Grocery",
            "Address": "අංක 114, නව නගරය, ගල්නෙවා",
            "Phone": "+94715540798",
            "WhatsApp": "+94715540798",
            "Viber": "",
            "MoH": "ගල්නෙවා",
            "Latitude": "8.0349244",
            "Longitude": "80.4796546"
        },
        {
            "District": "අනුරාධපුර",
            "Name": "Suwa Sharn Medical Centre & Pharmacy",
            "Address": "ජය මාවත, නව නගරය, ගල්නෙවා",
            "Phone": "+94710151700",
            "WhatsApp": "+94710151700",
            "Viber": "",
            "MoH": "ගල්නෙවා",
            "Latitude": "8.0365823",
            "Longitude": "80.4788393"
        },
        {
            "District": "අනුරාධපුර",
            "Name": "B.S. Family Care",
            "Address": "අනුරාධපුර පාර, හොරොපාතාන",
            "Phone": "+94777078993",
            "WhatsApp": "+94777078993",
            "Viber": "",
            "MoH": "හොරොව්පාතන",
            "Latitude": "8.547152",
            "Longitude": "80.82977"
        },
        {
            "District": "අනුරාධපුර",
            "Name": "M.K. Pharmacy",
            "Address": "ප්රධාන වීදිය, හොරොපොතනා",
            "Phone": "+94778483840",
            "WhatsApp": "+94778483840",
            "Viber": "",
            "MoH": "හොරොව්පාතන",
            "Latitude": "8.5508089",
            "Longitude": "80.8319469"
        },
        {
            "District": "අනුරාධපුර",
            "Name": "New Praveena Pharmacy",
            "Address": "වනානියා පාර, හොරොපොතනා",
            "Phone": "+94773547558",
            "WhatsApp": "+94773547558",
            "Viber": "",
            "MoH": "හොරොව්පාතන",
            "Latitude": "8.5504119",
            "Longitude": "80.8323154"
        },
        {
            "District": "අනුරාධපුර",
            "Name": "Renuka Pharmacy",
            "Address": "වනානියා පාර, හොරොපොතනා",
            "Phone": "+94715420573",
            "WhatsApp": "+94715420573",
            "Viber": "",
            "MoH": "හොරොව්පාතන",
            "Latitude": "8.7559631",
            "Longitude": "80.501175"
        },
        {
            "District": "අනුරාධපුර",
            "Name": "Cargills Pharmacy",
            "Address": "රණජයපුර, ඉපලෝගමා",
            "Phone": "+94252262000",
            "WhatsApp": "+94712279568",
            "Viber": "",
            "MoH": "ඉපලෝගමා",
            "Latitude": "8.0719177",
            "Longitude": "80.546471"
        },
        {
            "District": "අනුරාධපුර",
            "Name": "Ceylon Super Pharmacy",
            "Address": "කලවේවා, විජිතපුර",
            "Phone": "+94779493131",
            "WhatsApp": "+94779493131",
            "Viber": "",
            "MoH": "ඉපලෝගමා",
            "Latitude": "8.0240377",
            "Longitude": "80.5290765"
        },
        {
            "District": "අනුරාධපුර",
            "Name": "Bollegala Pharmacy",
            "Address": "රෝහල් පැත්තේ, කහටගස්ඩිගිලියා",
            "Phone": "+94729910679",
            "WhatsApp": "+94729910679",
            "Viber": "",
            "MoH": "කහටගස්ඩිගිලියා",
            "Latitude": "8.4229542",
            "Longitude": "80.6937177"
        },
        {
            "District": "අනුරාධපුර",
            "Name": "Bollegala Pharmacy",
            "Address": "අංක 106F, ප්රධාන වීදිය, කහටගස්ඩිගිලියා",
            "Phone": "+94729910679",
            "WhatsApp": "+94729910679",
            "Viber": "",
            "MoH": "කහටගස්ඩිගිලියා",
            "Latitude": "8.4229542",
            "Longitude": "80.6937177"
        },
        {
            "District": "අනුරාධපුර",
            "Name": "Bollegala Pharmacy",
            "Address": "අංක 93, ප්රධාන වීදිය, කහටගස්ඩිගිලියා",
            "Phone": "+94727360694",
            "WhatsApp": "+94727360694",
            "Viber": "",
            "MoH": "කහටගස්ඩිගිලියා",
            "Latitude": "8.4261626",
            "Longitude": "80.6870243"
        },
        {
            "District": "අනුරාධපුර",
            "Name": "Suwasetha Pharmacy",
            "Address": "ප්රධාන වීදිය, කෙබිතිගොල්ලෙවා, අනුරාධපුර",
            "Phone": "+94714632190",
            "WhatsApp": "+94779145673",
            "Viber": "",
            "MoH": "කෙබිතිගොල්ලෙවා",
            "Latitude": "8.6403744",
            "Longitude": "80.6709981"
        },
        {
            "District": "අනුරාධපුර",
            "Name": "Kekirawa Osusala",
            "Address": "බස් නැවතුම්පොළ, කැකිරාවා",
            "Phone": "+94719711234",
            "WhatsApp": "+94719711234",
            "Viber": "",
            "MoH": "කැකිරාව",
            "Latitude": "8.0415348",
            "Longitude": "80.5965799"
        },
        {
            "District": "අනුරාධපුර",
            "Name": "Samana Pharmacy",
            "Address": "මහනුවර පාර, මරදන්කදවල",
            "Phone": "+94775339532",
            "WhatsApp": "+94775339532",
            "Viber": "",
            "MoH": "කැකිරාව",
            "Latitude": "8.1290799",
            "Longitude": "80.5622258"
        },
        {
            "District": "අනුරාධපුර",
            "Name": "Sanjeewa Pharmacy",
            "Address": "අංක 136, ප්රධාන පාර, කකිරාවා",
            "Phone": "+94715350160",
            "WhatsApp": "+94777798718",
            "Viber": "",
            "MoH": "කැකිරාව",
            "Latitude": "8.0379707",
            "Longitude": "80.5988366"
        },
        {
            "District": "අනුරාධපුර",
            "Name": "Tharaka Pharmacy",
            "Address": "හබරානා පාර, මරදන්කදවල",
            "Phone": "+94702101735",
            "WhatsApp": "+94772511700",
            "Viber": "",
            "MoH": "කැකිරාව",
            "Latitude": "8.1274586",
            "Longitude": "80.5629332"
        },
        {
            "District": "අනුරාධපුර",
            "Name": "Thenuwara Pharmacy",
            "Address": "අංක 7D, ප්රධාන ශා ST, Kekirawa",
            "Phone": "+94775123777",
            "WhatsApp": "+94775123777",
            "Viber": "",
            "MoH": "කැකිරාව",
            "Latitude": "8.04044",
            "Longitude": "80.5978999"
        },
        {
            "District": "අනුරාධපුර",
            "Name": "C.P. Mohamed Pharmacy",
            "Address": "අංක 20/21/22, වෙළඳපොළ ස්ථානය, අනුරාධපුර",
            "Phone": "+94714479445",
            "WhatsApp": "+94714479445",
            "Viber": "",
            "MoH": "එම්.සී. අනුරාධපුර",
            "Latitude": "8.3166135",
            "Longitude": "80.4009674"
        },
        {
            "District": "අනුරාධපුර",
            "Name": "Chamee Pharmaceuticals (Pvt) Ltd",
            "Address": "අංක 28, නව බස් නැවතුම්පොළ, අනුරාධපුර",
            "Phone": "+94773129190",
            "WhatsApp": "+94773129190",
            "Viber": "",
            "MoH": "එම්.සී. අනුරාධපුර",
            "Latitude": "8.322301",
            "Longitude": "80.402635"
        },
        {
            "District": "අනුරාධපුර",
            "Name": "New Chamee Pharmacy",
            "Address": "අංක 08, ප්රධාන වීදිය, අනුරාධපුර",
            "Phone": "+94714623151",
            "WhatsApp": "+94714623151",
            "Viber": "",
            "MoH": "එම්.සී. අනුරාධපුර",
            "Latitude": "8.322301",
            "Longitude": "80.402635"
        },
        {
            "District": "අනුරාධපුර",
            "Name": "New Pharmacy",
            "Address": "අංක 1555, බණ්ඩාරනායක එම්. ඩබ්ලිව්., අනුරාධපුර",
            "Phone": "+94777368900",
            "WhatsApp": "+94777368900",
            "Viber": "",
            "MoH": "එම්.සී. අනුරාධපුර",
            "Latitude": "8.3273832",
            "Longitude": "80.4089609"
        },
        {
            "District": "අනුරාධපුර",
            "Name": "New Prasanna Pharmacy",
            "Address": "අංක 2141, ප්රධාන වීදි බැංකු වෙබ් අඩවිය, අනුරාධපුර",
            "Phone": "+94775765204",
            "WhatsApp": "+94775765204",
            "Viber": "",
            "MoH": "එම්.සී. අනුරාධපුර",
            "Latitude": "8.3259528",
            "Longitude": "80.4053739"
        },
        {
            "District": "අනුරාධපුර",
            "Name": "Queens Pharmacy",
            "Address": "අංක 3,31 ඩී -1/1, මිත්රිප් සේනානායක එම්. ඩබ්ලිව්, අනුරාධපුර",
            "Phone": "+94773624531",
            "WhatsApp": "+94773624531",
            "Viber": "",
            "MoH": "එම්.සී. අනුරාධපුර",
            "Latitude": "8.3113518",
            "Longitude": "80.4036508"
        },
        {
            "District": "අනුරාධපුර",
            "Name": "Asiri Pharmacy",
            "Address": "කඩ 12, අනුරාධපුර",
            "Phone": "+94727477860",
            "WhatsApp": "+94727477860",
            "Viber": "+94727477860",
            "MoH": "එම්.සී. අනුරාධපුර",
            "Latitude": "8.3275143",
            "Longitude": "80.4090992"
        },
        {
            "District": "අනුරාධපුර",
            "Name": "The Pharmacy",
            "Address": "නව නගරය, අනුරාධපුර",
            "Phone": "+94718653111",
            "WhatsApp": "+94718653111",
            "Viber": "+94718653111",
            "MoH": "එම්.සී. අනුරාධපුර",
            "Latitude": "8.3233652",
            "Longitude": "80.4035242"
        },
        {
            "District": "අනුරාධපුර",
            "Name": "Sarath pharmacy",
            "Address": "ප්රධාන වීදිය, නව නගරය, අනුරාධපුර",
            "Phone": "+94711348751",
            "WhatsApp": "+94711348751",
            "Viber": "+94711348751",
            "MoH": "එම්.සී. අනුරාධපුර",
            "Latitude": "8.3232136",
            "Longitude": "80.4030589"
        },
        {
            "District": "අනුරාධපුර",
            "Name": "New Chamee Pharmacy",
            "Address": "බැංකු නගරය, අනුරාධපුර",
            "Phone": "+94773129190",
            "WhatsApp": "+94773129190",
            "Viber": "",
            "MoH": "එම්.සී. අනුරාධපුර",
            "Latitude": "8.322301",
            "Longitude": "80.402635"
        },
        {
            "District": "අනුරාධපුර",
            "Name": "New Chamee Pharmacy",
            "Address": "Kab 50, අනුරාධපුර",
            "Phone": "+94773129190",
            "WhatsApp": "+94773129190",
            "Viber": "",
            "MoH": "එම්.සී. අනුරාධපුර",
            "Latitude": "8.322301",
            "Longitude": "80.402635"
        },
        {
            "District": "අනුරාධපුර",
            "Name": "Araliya Pharmacy",
            "Address": "අංක 06, රෝහල ඉදිරිපිට, අනුරාධපුර",
            "Phone": "+94716493175",
            "WhatsApp": "+94716493175",
            "Viber": "+94716493175",
            "MoH": "එම්.සී. අනුරාධපුර",
            "Latitude": "8.3231395",
            "Longitude": "80.417443"
        },
        {
            "District": "අනුරාධපුර",
            "Name": "Amaya Pharmacy",
            "Address": "කඩ 12, අනුරාධපුර",
            "Phone": "+94714477870",
            "WhatsApp": "+94714477870",
            "Viber": "",
            "MoH": "එම්.සී. අනුරාධපුර",
            "Latitude": "8.3273823",
            "Longitude": "80.4080762"
        },
        {
            "District": "අනුරාධපුර",
            "Name": "Asiri Pharmacy",
            "Address": "අංක 07, පොදු වෙළඳපොළ, මේදවාචියා",
            "Phone": "+94712205648",
            "WhatsApp": "+94718573119",
            "Viber": "",
            "MoH": "මැදවච්චිය",
            "Latitude": "8.5382196",
            "Longitude": "80.4934195"
        },
        {
            "District": "අනුරාධපුර",
            "Name": "Dulan Pharmacy",
            "Address": "රෝහලට ප්රතිවිරුද්ධව, මේදවාචියා",
            "Phone": "+94718206428",
            "WhatsApp": "+94718206428",
            "Viber": "",
            "MoH": "මැදවච්චිය",
            "Latitude": "8.5403518",
            "Longitude": "80.4923982"
        },
        {
            "District": "අනුරාධපුර",
            "Name": "K.B.J. Pharmacy",
            "Address": "රෝහලට ප්රතිවිරුද්ධව, මේදවාචියා",
            "Phone": "+94772535404",
            "WhatsApp": "+94772535404",
            "Viber": "",
            "MoH": "මැදවච්චිය",
            "Latitude": "8.5412712",
            "Longitude": "80.4920133"
        },
        {
            "District": "අනුරාධපුර",
            "Name": "Chanu Pharmacy",
            "Address": "මාතලේ හන්දිය, අනුරාධපුර",
            "Phone": "+94705819584",
            "WhatsApp": "+94705819584",
            "Viber": "",
            "MoH": "මිහින්තලේ",
            "Latitude": "8.323131",
            "Longitude": "80.415246"
        },
        {
            "District": "අනුරාධපුර",
            "Name": "Lakidu Pharmacy",
            "Address": "අනුරාධපුර පාර, මිහින්තලේ",
            "Phone": "+94710707396",
            "WhatsApp": "+94710707396",
            "Viber": "",
            "MoH": "මිහින්තලේ",
            "Latitude": "8.357968",
            "Longitude": "80.5063"
        },
        {
            "District": "අනුරාධපුර",
            "Name": "Lanka Pharmacy",
            "Address": "රම්බේවා පාර, මිහින්තලේ",
            "Phone": "+94773782506",
            "WhatsApp": "+94773782506",
            "Viber": "",
            "MoH": "මිහින්තලේ",
            "Latitude": "8.3588649",
            "Longitude": "80.5116753"
        },
        {
            "District": "අනුරාධපුර",
            "Name": "Samasee Health Care",
            "Address": "මාතලේ හන්දිය. අනුරාධපුර",
            "Phone": "+94703536685",
            "WhatsApp": "+94703536685",
            "Viber": "",
            "MoH": "මිහින්තලේ",
            "Latitude": "8.3328161",
            "Longitude": "80.4561354"
        },
        {
            "District": "අනුරාධපුර",
            "Name": "Moscow Pharmacy",
            "Address": "ප්රධාන වීදිය, නාච්චඩුවා",
            "Phone": "+94773272565",
            "WhatsApp": "+94773272565",
            "Viber": "",
            "MoH": "නාච්චඩුව",
            "Latitude": "8.2479906",
            "Longitude": "80.4594601"
        },
        {
            "District": "අනුරාධපුර",
            "Name": "Namals Pharmacy",
            "Address": "නාච්චඩුව",
            "Phone": "+94761266731",
            "WhatsApp": "+94761266731",
            "Viber": "",
            "MoH": "නාච්චඩුව",
            "Latitude": "8.323131",
            "Longitude": "80.415246"
        },
        {
            "District": "අනුරාධපුර",
            "Name": "Dedunu Pharmacy",
            "Address": "අංක 21, කුසුම්පුර පාර, නොච්චියාගම",
            "Phone": "+94771840626",
            "WhatsApp": "+94771840626",
            "Viber": "",
            "MoH": "නොච්චියාගම",
            "Latitude": "8.2642883",
            "Longitude": "80.2101026"
        },
        {
            "District": "අනුරාධපුර",
            "Name": "Hiru Pharmacy & Grocery",
            "Address": "රෝහලේ ඉදිරිපස, නොච්චියාගම",
            "Phone": "+94702049188",
            "WhatsApp": "+94702049188",
            "Viber": "",
            "MoH": "නොච්චියාගම",
            "Latitude": "8.2642215",
            "Longitude": "80.2101643"
        },
        {
            "District": "අනුරාධපුර",
            "Name": "New Dedunu Pharmacy",
            "Address": "නොච්චියාගම",
            "Phone": "+94771840626",
            "WhatsApp": "+94771840626",
            "Viber": "",
            "MoH": "නොච්චියාගම",
            "Latitude": "8.2642883",
            "Longitude": "80.2101026"
        },
        {
            "District": "අනුරාධපුර",
            "Name": "Pragathi Pharmacy & Grocery",
            "Address": "අංක 31, කුසුම්පුර පාර, නොච්චියාගම",
            "Phone": "+94712749070",
            "WhatsApp": "+94712749070",
            "Viber": "",
            "MoH": "නොච්චියාගම",
            "Latitude": "8.264547",
            "Longitude": "80.2100857"
        },
        {
            "District": "අනුරාධපුර",
            "Name": "Samanala Pharmacy & Hospital",
            "Address": "අංක 420, කුසුම්පුර පාර, නොච්චියාගම",
            "Phone": "+94788888061",
            "WhatsApp": "+94788888061",
            "Viber": "",
            "MoH": "නොච්චියාගම",
            "Latitude": "8.2593555",
            "Longitude": "80.2017262"
        },
        {
            "District": "අනුරාධපුර",
            "Name": "First Care Pharmacy",
            "Address": "තිසාවේවා, අනුරාධපුර",
            "Phone": "+94713776427",
            "WhatsApp": "+94713776427",
            "Viber": "",
            "MoH": "නුවරගම් පලතා මධ්යම",
            "Latitude": "8.3425079",
            "Longitude": "80.381763"
        },
        {
            "District": "අනුරාධපුර",
            "Name": "Kalana Pharmacy",
            "Address": "පෙමදුව, විලච්චියා",
            "Phone": "+94716402904",
            "WhatsApp": "+94716402904",
            "Viber": "",
            "MoH": "නුවරගම් පලතා මධ්යම",
            "Latitude": "",
            "Longitude": ""
        },
        {
            "District": "අනුරාධපුර",
            "Name": "Eiffel Pharmacy",
            "Address": "අංක 152 / ඒ, බී, එම්, මයිලාගස් හන්දිය, අනුරාධපුර",
            "Phone": "+94772538777",
            "WhatsApp": "+94710720720",
            "Viber": "",
            "MoH": "නුවරගම් පලතා නැගෙනහිර",
            "Latitude": "8.3164136",
            "Longitude": "80.4145914"
        },
        {
            "District": "අනුරාධපුර",
            "Name": "Isiwara Pharmacy",
            "Address": "අංක 09, කඩ 50, අනුරාධපුර",
            "Phone": "+94712349748",
            "WhatsApp": "+94716078985",
            "Viber": "",
            "MoH": "නුවරගම් පලතා නැගෙනහිර",
            "Latitude": "8.323131",
            "Longitude": "80.415246"
        },
        {
            "District": "අනුරාධපුර",
            "Name": "New City Pharmacy",
            "Address": "Dahiyagama, අනුරාධපුර",
            "Phone": "+94726633196",
            "WhatsApp": "+94718653120",
            "Viber": "",
            "MoH": "නුවරගම් පලතා නැගෙනහිර",
            "Latitude": "8.3174336",
            "Longitude": "80.3976247"
        },
        {
            "District": "අනුරාධපුර",
            "Name": "Saveesa Pharmacy",
            "Address": "අංක 641, ගුවන්තොටුපල පාර, අනුරාධපුර",
            "Phone": "+94714612906",
            "WhatsApp": "+94716903344",
            "Viber": "",
            "MoH": "නුවරගම් පලතා නැගෙනහිර",
            "Latitude": "8.2960222",
            "Longitude": "80.4359152"
        },
        {
            "District": "අනුරාධපුර",
            "Name": "Udira Pharmacy & Grocery",
            "Address": "විජයපුර",
            "Phone": "+94772073568",
            "WhatsApp": "+94768614828",
            "Viber": "",
            "MoH": "නුවරගම් පලතා නැගෙනහිර",
            "Latitude": "8.2989328",
            "Longitude": "80.4110612"
        },
        {
            "District": "අනුරාධපුර",
            "Name": "Pubbogama Pharmacy",
            "Address": "පුබ්ගොඩ",
            "Phone": "+94761537960",
            "WhatsApp": "+94761537960",
            "Viber": "",
            "MoH": "පලගල",
            "Latitude": "7.9286512",
            "Longitude": "80.5965262"
        },
        {
            "District": "අනුරාධපුර",
            "Name": "Food City Express",
            "Address": "දම්බුල්ලා පාර, හබරාන",
            "Phone": "+94775096182",
            "WhatsApp": "+94775096182",
            "Viber": "",
            "MoH": "පලුගස්වේවා",
            "Latitude": "8.0390164",
            "Longitude": "80.7548909"
        },
        {
            "District": "අනුරාධපුර",
            "Name": "Suwa Sampatha Pharmacy",
            "Address": "කෙකිරාවා පාර, හබරාන",
            "Phone": "+94711915583",
            "WhatsApp": "+94711915583",
            "Viber": "",
            "MoH": "පලුගස්වේවා",
            "Latitude": "8.0387266",
            "Longitude": "80.7568315"
        },
        {
            "District": "අනුරාධපුර",
            "Name": "Suwamadura Pharmacy (Pvt) Ltd",
            "Address": "අංක 17, දම්බුල්ලා පාර, හබරාන",
            "Phone": "+94778981512",
            "WhatsApp": "+94763090280",
            "Viber": "",
            "MoH": "පලුගස්වේවා",
            "Latitude": "8.0393561",
            "Longitude": "80.7552993"
        },
        {
            "District": "අනුරාධපුර",
            "Name": "Harshani Pharmacy",
            "Address": "අංක 297, රාජන්ගනය",
            "Phone": "+94715888317",
            "WhatsApp": "+94715888317",
            "Viber": "",
            "MoH": "රාජන්ගනය",
            "Latitude": "8.2044093",
            "Longitude": "80.1023759"
        },
        {
            "District": "අනුරාධපුර",
            "Name": "Sadamini Pharmacy",
            "Address": "සාප්පු සංකීර්ණය, සැතපුම් 5 කණුව, රාජන්ගනය",
            "Phone": "+94778525433",
            "WhatsApp": "+94778525433",
            "Viber": "",
            "MoH": "රාජන්ගනය",
            "Latitude": "8.1632141",
            "Longitude": "80.2182245"
        },
        {
            "District": "අනුරාධපුර",
            "Name": "Suwa Sarana Pharmacy & Grocery",
            "Address": "රම්බේවා",
            "Phone": "+94704095566",
            "WhatsApp": "+94701631018",
            "Viber": "",
            "MoH": "රම්බේවා",
            "Latitude": "8.442531",
            "Longitude": "80.506677"
        },
        {
            "District": "අනුරාධපුර",
            "Name": "New Suwa Sahana Pharmacy",
            "Address": "A9 RD, Rambewa",
            "Phone": "+94766801680",
            "WhatsApp": "+94766801680",
            "Viber": "",
            "MoH": "රම්බේවා",
            "Latitude": "8.4402585",
            "Longitude": "80.5038301"
        },
        {
            "District": "අනුරාධපුර",
            "Name": "Dinu Pharmacy",
            "Address": "රාජන හන්දිය, තම්බුත්තෙගම",
            "Phone": "+94772693078",
            "WhatsApp": "+94772693078",
            "Viber": "",
            "MoH": "තම්බුත්තෙගම",
            "Latitude": "8.1610398",
            "Longitude": "80.300447"
        },
        {
            "District": "අනුරාධපුර",
            "Name": "Mahaweli Pharmacy & Grocery",
            "Address": "අංක 036, රෝහල් පාර, තම්බුත්තෙගම",
            "Phone": "+94771307871",
            "WhatsApp": "+94763714803",
            "Viber": "",
            "MoH": "තම්බුත්තෙගම",
            "Latitude": "8.1528593",
            "Longitude": "80.2945941"
        },
        {
            "District": "අනුරාධපුර",
            "Name": "Medi Plus Pharmacy & Grocery",
            "Address": "රාජන හන්දිය, තම්බුත්තෙගම",
            "Phone": "+94769206712",
            "WhatsApp": "+94712253613",
            "Viber": "",
            "MoH": "තම්බුත්තෙගම",
            "Latitude": "8.1616669",
            "Longitude": "80.3001465"
        },
        {
            "District": "අනුරාධපුර",
            "Name": "Tharindu Pharmacy & Grocery",
            "Address": "අංක 033, රෝහල් පාර, තම්බුත්තෙගම",
            "Phone": "+94771232937",
            "WhatsApp": "+94771232937",
            "Viber": "",
            "MoH": "තම්බුත්තෙගම",
            "Latitude": "8.1540015",
            "Longitude": "80.3045967"
        },
        {
            "District": "අනුරාධපුර",
            "Name": "Lahiru Pharmacy",
            "Address": "මහනුවර පාර, තිරප්පනේ",
            "Phone": "+94716091820",
            "WhatsApp": "+94716091820",
            "Viber": "",
            "MoH": "තිරප්පනේ",
            "Latitude": "8.2184917",
            "Longitude": "80.5225898"
        },
        {
            "District": "අනුරාධපුර",
            "Name": "Sethumini Pharmacy",
            "Address": "",
            "Phone": "+94776681258",
            "WhatsApp": "+94776681258",
            "Viber": "",
            "MoH": "තිරප්පනේ",
            "Latitude": "8.2184917",
            "Longitude": "80.5225898"
        },
        {
            "District": "අනුරාධපුර",
            "Name": "Co-Operative Pharmacy",
            "Address": "කැකිරාවා පාර, එප්පවල පාර",
            "Phone": "+94766779208",
            "WhatsApp": "+94766779208",
            "Viber": "",
            "MoH": "තලවා",
            "Latitude": "8.14606",
            "Longitude": "80.411112"
        },
        {
            "District": "අනුරාධපුර",
            "Name": "Dilani Stores & Pharmacy",
            "Address": "අංක 44, කෙකිරාවා පාර, එප්පවල",
            "Phone": "+94714948790",
            "WhatsApp": "+94772477405",
            "Viber": "",
            "MoH": "තලවා",
            "Latitude": "8.2323774",
            "Longitude": "80.3532266"
        },
        {
            "District": "අනුරාධපුර",
            "Name": "Dinusha Pharmacy Grocery &Trade Center",
            "Address": "කෙකිරාවා පාර, තලාව",
            "Phone": "+94715871205",
            "WhatsApp": "+94715871205",
            "Viber": "",
            "MoH": "තලවා",
            "Latitude": "8.2364716",
            "Longitude": "80.3510437"
        },
        {
            "District": "අනුරාධපුර",
            "Name": "M.N. Pharmacy",
            "Address": "කුරුණෑගල පාර, තලාවා පාර",
            "Phone": "+94717747181",
            "WhatsApp": "+94717747181",
            "Viber": "",
            "MoH": "තලවා",
            "Latitude": "8.2340532",
            "Longitude": "80.3490864"
        },
        {
            "District": "අනුරාධපුර",
            "Name": "Pathirana Pharmacy & Grocery,",
            "Address": "අංක 83/1, තලවා පාර, එප්පවල",
            "Phone": "+94775459710",
            "WhatsApp": "+94775459710",
            "Viber": "",
            "MoH": "තලවා",
            "Latitude": "8.0545904",
            "Longitude": "80.560354"
        },
        {
            "District": "බදුල්ල",
            "Name": "Apothicaries Pharmacy",
            "Address": "අංක 229, පහළ වීදි බඩුල්ලා",
            "Phone": "+94552222449",
            "WhatsApp": "+94779634050",
            "Viber": "+94779634050",
            "MoH": "බදුල්ල",
            "Latitude": "6.9858291",
            "Longitude": "81.0600489"
        },
        {
            "District": "බදුල්ල",
            "Name": "Central Pharmacy",
            "Address": "අංක 5 කිංග්ස් එස්ට්රි බදුල්ලා",
            "Phone": "+94552228021",
            "WhatsApp": "+94775091958",
            "Viber": "+94775091958",
            "MoH": "බදුල්ල",
            "Latitude": "6.9890275",
            "Longitude": "81.0573291"
        },
        {
            "District": "බදුල්ල",
            "Name": "City Medicals",
            "Address": "25A, පහළ වීදිය, බදුල්ලා",
            "Phone": "+94552224304",
            "WhatsApp": "+94714208164",
            "Viber": "+94714208164",
            "MoH": "බදුල්ල",
            "Latitude": "6.9891586",
            "Longitude": "81.0587874"
        },
        {
            "District": "බදුල්ල",
            "Name": "Rajya Osusala",
            "Address": "සීඩබ්ලිව්ඊ ගොඩනැගිල්ල, බණ්ඩාරවෙල පාර, බදුල්ලා",
            "Phone": "552229837",
            "WhatsApp": "+94701902757",
            "Viber": "+94701902757",
            "MoH": "බදුල්ල",
            "Latitude": "6.9907895",
            "Longitude": "81.0536746"
        },
        {
            "District": "බදුල්ල",
            "Name": "Rajya Osusala",
            "Address": "බස් නැවතුම් පරිශ්රයන්, බදුල්ලා.",
            "Phone": "+9455-222470",
            "WhatsApp": "+94701902758",
            "Viber": "+94701902758",
            "MoH": "බදුල්ල",
            "Latitude": "6.9907895",
            "Longitude": "81.0536746"
        },
        {
            "District": "බදුල්ල",
            "Name": "Perlyn Pharmacy",
            "Address": "අංක 35, බණ්ඩාරවෙල පාර, බදුල්ලා",
            "Phone": "+94777801866",
            "WhatsApp": "+94777801866",
            "Viber": "+94777801866",
            "MoH": "බදුල්ල",
            "Latitude": "6.9908765",
            "Longitude": "81.0540039"
        },
        {
            "District": "බදුල්ල",
            "Name": "Shanthi Medishop",
            "Address": "බදුල්ල",
            "Phone": "+94771109000",
            "WhatsApp": "+94771109000",
            "Viber": "",
            "MoH": "බදුල්ල",
            "Latitude": "6.9922881",
            "Longitude": "81.0541822"
        },
        {
            "District": "බදුල්ල",
            "Name": "United Pharmacy",
            "Address": "අංක 6, සෙන්ට්ලේන්, බදුල්ලා",
            "Phone": "+94552229111",
            "WhatsApp": "+94777623703",
            "Viber": "",
            "MoH": "බදුල්ල",
            "Latitude": "6.9885163",
            "Longitude": "81.0574484"
        },
        {
            "District": "බදුල්ල",
            "Name": "Vision Pharmacy",
            "Address": "17, බණ්ඩරාවල පාර, බදුල්ලා",
            "Phone": "+94773676235",
            "WhatsApp": "+94769438439",
            "Viber": "+94769438439",
            "MoH": "බදුල්ල",
            "Latitude": "6.9907817",
            "Longitude": "81.0540423"
        },
        {
            "District": "බදුල්ල",
            "Name": "Lanka Chemist",
            "Address": "70, ධර්මදූතා පාර, බදුල්ලා",
            "Phone": "552222132",
            "WhatsApp": "+94717755993",
            "Viber": "+94717755993",
            "MoH": "බදුල්ල",
            "Latitude": "6.9880196",
            "Longitude": "81.0594056"
        },
        {
            "District": "බදුල්ල",
            "Name": "Badulla Pharmacy",
            "Address": "අංක 3, කිංග්ස් වීදිය, බදුල්ලා",
            "Phone": "+94771887215",
            "WhatsApp": "+94768630220",
            "Viber": "+94768630220",
            "MoH": "බදුල්ල",
            "Latitude": "6.9890275",
            "Longitude": "81.0573291"
        },
        {
            "District": "බදුල්ල",
            "Name": "Central Pharmacy",
            "Address": "අංක 135, ප්රධාන වීදිය බණ්ඩරාවල",
            "Phone": "+94726616969",
            "WhatsApp": "+94777126849",
            "Viber": "+94777126849",
            "MoH": "බණ්ඩාරවෙල",
            "Latitude": "6.830721",
            "Longitude": "80.9900913"
        },
        {
            "District": "බදුල්ල",
            "Name": "Jeewaya Pharmacy",
            "Address": "අංක 232, ප්රධාන වීදිය බණ්ඩරාවල",
            "Phone": "+94775189860",
            "WhatsApp": "+94702836201",
            "Viber": "+94702836201",
            "MoH": "බණ්ඩාරවෙල",
            "Latitude": "6.825878",
            "Longitude": "80.9981576"
        },
        {
            "District": "බදුල්ල",
            "Name": "Luckieland Pharmacy",
            "Address": "අංක 105, ප්රධාන වීදිය, බණ්ඩරාවල",
            "Phone": "+94718394832",
            "WhatsApp": "+94777771129",
            "Viber": "+94777771129",
            "MoH": "බණ්ඩාරවෙල",
            "Latitude": "6.8309644",
            "Longitude": "80.9898243"
        },
        {
            "District": "බදුල්ල",
            "Name": "Nava Biolanka Pharmacy",
            "Address": "අංක 47, ධර්මවිජය එම්.ඩබ්ලිව්, බණ්ඩාරවෙල",
            "Phone": "+94715125854",
            "WhatsApp": "+94772002819",
            "Viber": "+94772002819",
            "MoH": "බණ්ඩාරවෙල",
            "Latitude": "6.825878",
            "Longitude": "80.9981576"
        },
        {
            "District": "බදුල්ල",
            "Name": "New Manoja Pharmacy",
            "Address": "අංක 11, නව බස් නැවතුම, බණ්ඩරාවල",
            "Phone": "+94761353438",
            "WhatsApp": "+94773456352",
            "Viber": "",
            "MoH": "බණ්ඩාරවෙල",
            "Latitude": "6.82976",
            "Longitude": "80.9883766"
        },
        {
            "District": "බදුල්ල",
            "Name": "Samurdhi Pharmacy",
            "Address": "අත්තම්පිටියා පාර, හෙමමුඩාන, බණ්ඩරාවෙල්",
            "Phone": "+94756496580",
            "WhatsApp": "+94777857440",
            "Viber": "+94777857440",
            "MoH": "බණ්ඩාරවෙල",
            "Latitude": "6.8406589",
            "Longitude": "80.9852065"
        },
        {
            "District": "බදුල්ල",
            "Name": "Baduriya Pharmacy",
            "Address": "අංක 43, ප්රධාන වීදිය, බණ්ඩරාවල",
            "Phone": "572222359",
            "WhatsApp": "+94723573888",
            "Viber": "+94723573888",
            "MoH": "බණ්ඩාරවෙල",
            "Latitude": "6.8308828",
            "Longitude": "80.9895496"
        },
        {
            "District": "බදුල්ල",
            "Name": "Osu Sala, Diyathalawa",
            "Address": "නව බස් නැවතුම් පරිශ්රයන්, ප්රධාන වීදිය, දියතලාව.",
            "Phone": "572227190",
            "WhatsApp": "+94717907808",
            "Viber": "+94717907808",
            "MoH": "දියතලාව",
            "Latitude": "6.8063585",
            "Longitude": "80.9575546"
        },
        {
            "District": "බදුල්ල",
            "Name": "Toraana Pharmacy",
            "Address": "රෝහල අසල, ගිරාන්දුරුකෝට්ටේ",
            "Phone": "+94718105674",
            "WhatsApp": "+94718105674",
            "Viber": "+94718105674",
            "MoH": "ගිරාන්දුරුකෝට්",
            "Latitude": "7.4629169",
            "Longitude": "81.0174917"
        },
        {
            "District": "බදුල්ල",
            "Name": "Attampitiya Pharmacy",
            "Address": "අංක 08, බදුල්ලා පාර, අත්තම්පිටිය",
            "Phone": "+94723740141",
            "WhatsApp": "+94767180737",
            "Viber": "",
            "MoH": "හාලි-එලා",
            "Latitude": "6.9371831",
            "Longitude": "80.9911167"
        },
        {
            "District": "බදුල්ල",
            "Name": "Dilinza Pharmacy",
            "Address": "අංක 82, බදුල්ලා පාර, හාලි-එලා",
            "Phone": "+94714165381",
            "WhatsApp": "+94714165381",
            "Viber": "+94714165381",
            "MoH": "හාලි-එලා",
            "Latitude": "6.9549535",
            "Longitude": "81.031558"
        },
        {
            "District": "බදුල්ල",
            "Name": "Aiyappan Pharmacy",
            "Address": "අංක 12, සාප්පු සංකීර්ණය, හපුතලේ",
            "Phone": "+94774928637",
            "WhatsApp": "+94774928637",
            "Viber": "+94774928637",
            "MoH": "හපුටේල්",
            "Latitude": "6.7654136",
            "Longitude": "80.9525655"
        },
        {
            "District": "බදුල්ල",
            "Name": "City Pharmacy",
            "Address": "අංක 05, දම්බෙන්න පාර, හපුතලේ",
            "Phone": "+94711698723",
            "WhatsApp": "+94711698723",
            "Viber": "+94779585306",
            "MoH": "හපුටේල්",
            "Latitude": "6.7687744",
            "Longitude": "80.9601295"
        },
        {
            "District": "බදුල්ල",
            "Name": "Thilakna Pharmacy",
            "Address": "ප්රධාන වීදිය, දියතලාව",
            "Phone": "+94716229210",
            "WhatsApp": "+94702882829",
            "Viber": "+94716229210",
            "MoH": "හපුටේල්",
            "Latitude": "6.8082589",
            "Longitude": "80.9572166"
        },
        {
            "District": "බදුල්ල",
            "Name": "Thilakna Pharmacy",
            "Address": "ප්රධාන වීදිය, ඩයතලාවා",
            "Phone": "+94716229210",
            "WhatsApp": "+94716229210",
            "Viber": "",
            "MoH": "හපුටේල්",
            "Latitude": "6.8082589",
            "Longitude": "80.9572166"
        },
        {
            "District": "බදුල්ල",
            "Name": "Suwana Pharmacy",
            "Address": "ප්රධාන වීදිය දියතලාව",
            "Phone": "+94718307590",
            "WhatsApp": "+94762660879",
            "Viber": "+94762660879",
            "MoH": "හපුටේල්",
            "Latitude": "6.806951",
            "Longitude": "80.9572021"
        },
        {
            "District": "බදුල්ල",
            "Name": "Hijra Pharmacy",
            "Address": "අංක 09, දම්බෙතියර්නා පාර, හපුතලේ",
            "Phone": "+94723011558",
            "WhatsApp": "+94723011558",
            "Viber": "",
            "MoH": "හපුටේල්",
            "Latitude": "6.7654136",
            "Longitude": "80.9525655"
        },
        {
            "District": "බදුල්ල",
            "Name": "Gayani Pharmacy",
            "Address": "කන්දකෙටියා හන්දිය, කන්දකතිය",
            "Phone": "+94773724300",
            "WhatsApp": "+94773724300",
            "Viber": "+94773724300",
            "MoH": "කන්දකතියියා",
            "Latitude": "7.1703907",
            "Longitude": "81.0044906"
        },
        {
            "District": "බදුල්ල",
            "Name": "City Pharmacy",
            "Address": "බදුල්ලා පාර, මහියංගන",
            "Phone": "+94552258003",
            "WhatsApp": "+94727900599",
            "Viber": "+94727900599",
            "MoH": "මහියාංගනය",
            "Latitude": "7.3393168",
            "Longitude": "80.9925857"
        },
        {
            "District": "බදුල්ල",
            "Name": "City Pharmacy",
            "Address": "බදුල්ලා පාර, මහියංගනාය",
            "Phone": "+94766743072",
            "WhatsApp": "+94774928637",
            "Viber": "",
            "MoH": "මහියාංගනය",
            "Latitude": "7.3393168",
            "Longitude": "80.9925857"
        },
        {
            "District": "බදුල්ල",
            "Name": "Prasanna Pharmacy",
            "Address": "අංක 12, බස් නැවතුම්පොළ අසල මහියන්ගනය.",
            "Phone": "552258503",
            "WhatsApp": "+94777872498",
            "Viber": "+94777872498",
            "MoH": "මහියාංගනය",
            "Latitude": "7.3383239",
            "Longitude": "80.9924236"
        },
        {
            "District": "බදුල්ල",
            "Name": "Shanthi Pharmacy & Channel Centre",
            "Address": "අංක 35, මහනුවර පාර, නව නගරය, මහියංගනාය",
            "Phone": "+94552257373",
            "WhatsApp": "+94772762018",
            "Viber": "+94772762018",
            "MoH": "මහියාංගනය",
            "Latitude": "7.339242",
            "Longitude": "80.9905099"
        },
        {
            "District": "බදුල්ල",
            "Name": "Suwamedura Pharmacy",
            "Address": "රෝහල අසල මහියංගනය",
            "Phone": "+94552258399",
            "WhatsApp": "+94702798070",
            "Viber": "+94702798070",
            "MoH": "මහියාංගනය",
            "Latitude": "7.339242",
            "Longitude": "80.9905099"
        },
        {
            "District": "බදුල්ල",
            "Name": "Tharani Pharmacy",
            "Address": "අංක 7, පෞද්ගලික බස් නැවතුම්පොළ, මහියන්ගනය",
            "Phone": "+94552258362",
            "WhatsApp": "+94763900161",
            "Viber": "+94763900161",
            "MoH": "මහියාංගනය",
            "Latitude": "7.3394807",
            "Longitude": "80.9924387"
        },
        {
            "District": "බදුල්ල",
            "Name": "Calistro Pharmay",
            "Address": "අංක 23/1, ප්රධාන වීදි පස්සා",
            "Phone": "+94716088939",
            "WhatsApp": "+94716088939",
            "Viber": "",
            "MoH": "පස්සර",
            "Latitude": "6.9349088",
            "Longitude": "81.1526976"
        },
        {
            "District": "බදුල්ල",
            "Name": "Reegal Pharmacy",
            "Address": "අංක 360, ප්රධාන වීදිය, පස්සාරා",
            "Phone": "+94770799589",
            "WhatsApp": "+94770799589",
            "Viber": "+94770799589",
            "MoH": "පස්සර",
            "Latitude": "6.9353385",
            "Longitude": "81.1570165"
        },
        {
            "District": "බදුල්ල",
            "Name": "DJ PharmACY",
            "Address": "අංක 219 ඒ, ප්රධාන වීදි පස්සා",
            "Phone": "+94773946904",
            "WhatsApp": "+94773946904",
            "Viber": "+94773946904",
            "MoH": "පස්සර",
            "Latitude": "6.9349088",
            "Longitude": "81.1526976"
        },
        {
            "District": "බදුල්ල",
            "Name": "Godakubura Pharmacy",
            "Address": "අංක 146, එන්, එයිටා පාර, වෙලිමඩා",
            "Phone": "+94716807904",
            "WhatsApp": "+94718351964",
            "Viber": "+94718351964",
            "MoH": "වැලිමඞ",
            "Latitude": "6.9019072",
            "Longitude": "80.9079245"
        },
        {
            "District": "බදුල්ල",
            "Name": "Lal Pharmacy",
            "Address": "වෙලිමාඩා අංක 08, හේමපාල මුනිදාස පාර",
            "Phone": "+94771499011",
            "WhatsApp": "+94777305343",
            "Viber": "+94777305343",
            "MoH": "වැලිමඞ",
            "Latitude": "6.9053921",
            "Longitude": "80.9119053"
        },
        {
            "District": "බදුල්ල",
            "Name": "Sampath Pharmacy",
            "Address": "අංක 3, එරබඩා පාර, කප්පෙටිපොල",
            "Phone": "+94768227940",
            "WhatsApp": "+94772944200",
            "Viber": "+94772944200",
            "MoH": "වැලිමඞ",
            "Latitude": "6.8852179",
            "Longitude": "80.8758289"
        },
        {
            "District": "බදුල්ල",
            "Name": "Mahajana Pharmacy",
            "Address": "අංක 83, නුවරෙලියා පාර, වෙලිමඩා",
            "Phone": "572244881",
            "WhatsApp": "+94761258875",
            "Viber": "+94761258875",
            "MoH": "වැලිමඞ",
            "Latitude": "7.1625526",
            "Longitude": "80.5719629"
        },
        {
            "District": "බදුල්ල",
            "Name": "New Sumedha Pharamacy",
            "Address": "වෙලිමඩා පාර, බොරලන්ද",
            "Phone": "+94768841718",
            "WhatsApp": "+94752829526",
            "Viber": "+94752829526",
            "MoH": "වැලිමඞ",
            "Latitude": "6.9052847",
            "Longitude": "80.9109237"
        },
        {
            "District": "බදුල්ල",
            "Name": "Bogahakubura Pharmacy",
            "Address": "අංක 5, සාප්පු සංකීර්ණය, බොගහකුබුරා",
            "Phone": "+94717008388",
            "WhatsApp": "+94717008388",
            "Viber": "",
            "MoH": "වැලිමඞ",
            "Latitude": "",
            "Longitude": ""
        },
        {
            "District": "බදුල්ල",
            "Name": "Somasiri Super Pharmacy",
            "Address": "එලා ටවුන්, එලා",
            "Phone": "+94773790501",
            "WhatsApp": "+94773790501",
            "Viber": "+94773790501",
            "MoH": "එලා",
            "Latitude": "6.8743388",
            "Longitude": "81.0485271"
        },
        {
            "District": "බදුල්ල",
            "Name": "Sri Sai Medicals",
            "Address": "නවේලගම පාර, බැලකෙටුව",
            "Phone": "+94779807574",
            "WhatsApp": "+94779807574",
            "Viber": "+94779807574",
            "MoH": "එලා",
            "Latitude": "6.8605154",
            "Longitude": "81.0948532"
        },
        {
            "District": "බදුල්ල",
            "Name": "Lakchana Pharmacy",
            "Address": "බදුල්ලා පාර, ඩෙමෝදර",
            "Phone": "+94772224322",
            "WhatsApp": "+94772224322",
            "Viber": "+94772224322",
            "MoH": "එලා",
            "Latitude": "6.9549535",
            "Longitude": "81.031558"
        },
        {
            "District": "බදුල්ල",
            "Name": "M.G.Laksmi Pharmacy",
            "Address": "අංක 37, ප්රධාන වීදිය, කොස්ලන්ද",
            "Phone": "+94778741365",
            "WhatsApp": "+94783691465",
            "Viber": "+94772147595",
            "MoH": "හල්ඩුමුල්ලා",
            "Latitude": "6.7431234",
            "Longitude": "81.0178369"
        },
        {
            "District": "බදුල්ල",
            "Name": "Induwara Pharmacy",
            "Address": "අංක 02, මහනුවර පාර, මීගහකිවල",
            "Phone": "+94777889071",
            "WhatsApp": "+94769148882",
            "Viber": "+94769148882",
            "MoH": "මීගහකියුල",
            "Latitude": "7.1375606",
            "Longitude": "81.0478156"
        },
        {
            "District": "බදුල්ල",
            "Name": "Shopital Pharmacy",
            "Address": "අංක 97/1, ප්රධාන වීදිය, ලුනුගල",
            "Phone": "+94718928156",
            "WhatsApp": "+94719898914",
            "Viber": "+94719898914",
            "MoH": "ලුනුගල",
            "Latitude": "7.0403676",
            "Longitude": "81.2016737"
        },
        {
            "District": "බදුල්ල",
            "Name": "Suwan Pharmacy",
            "Address": "ලුනුවත්ත, උවා පරණගම",
            "Phone": "+94713680112",
            "WhatsApp": "+94713680812",
            "Viber": "+94713680812",
            "MoH": "උවා පරණගම",
            "Latitude": "6.9552623",
            "Longitude": "80.9252554"
        },
        {
            "District": "බදුල්ල",
            "Name": "Apsara Pharmacy",
            "Address": "අන්දන්පොත, යුරේනියා",
            "Phone": "+94778669198",
            "WhatsApp": "+94778669198",
            "Viber": "+94779973938",
            "MoH": "රයිඩමාලියාඩා",
            "Latitude": "7.2621251",
            "Longitude": "81.0812125"
        },
        {
            "District": "මඩකලපුව",
            "Name": "K.R.Medical",
            "Address": "ප්රධාන මාර්ගය, ඒරායම්පතිය",
            "Phone": "+94773763481",
            "WhatsApp": "+94767868103",
            "Viber": "",
            "MoH": "අරයායිපති",
            "Latitude": "7.6569501",
            "Longitude": "81.7404134"
        },
        {
            "District": "මඩකලපුව",
            "Name": "Batticaloa Medical",
            "Address": "94, බාර් පාර, මඩකලපුව",
            "Phone": "+94652224400",
            "WhatsApp": "+94777142268",
            "Viber": "",
            "MoH": "මඩකලපුව",
            "Latitude": "7.7201316",
            "Longitude": "81.7012999"
        },
        {
            "District": "මඩකලපුව",
            "Name": "S.K. Siranjeevi Pharmacy",
            "Address": "570 ඩී, සීනනා උරානි, ට්රින්කෝ පාර, මඩකලපුව",
            "Phone": "+94652051151",
            "WhatsApp": "+94777003668",
            "Viber": "+94777003668",
            "MoH": "මඩකලපුව",
            "Latitude": "7.7300475",
            "Longitude": "81.6747671"
        },
        {
            "District": "මඩකලපුව",
            "Name": "Sakthi Medical",
            "Address": "118 ඒ, රෝහල් පාර, මඩකලපුව",
            "Phone": "+94652228548",
            "WhatsApp": "",
            "Viber": "+94779502087",
            "MoH": "මඩකලපුව",
            "Latitude": "7.7080971",
            "Longitude": "81.6897892"
        },
        {
            "District": "මඩකලපුව",
            "Name": "Tip Top Pharmacy",
            "Address": "20, මධ්යම පාර, මඩකලපුව",
            "Phone": "+94652222221",
            "WhatsApp": "+94772072722",
            "Viber": "+94707070666",
            "MoH": "මඩකලපුව",
            "Latitude": "7.713883",
            "Longitude": "81.6975428"
        },
        {
            "District": "මඩකලපුව",
            "Name": "Vision Pharma",
            "Address": "59 සී, කූලාවාඩි පාර, මඩකලපුව",
            "Phone": "+94779123494",
            "WhatsApp": "+94750523075",
            "Viber": "+94779123494",
            "MoH": "මඩකලපුව",
            "Latitude": "7.7317311",
            "Longitude": "81.694707"
        },
        {
            "District": "මඩකලපුව",
            "Name": "Eastern Medical",
            "Address": "ප්රධාන වීදිය, චෙන්කලාඩි",
            "Phone": "+94652240450",
            "WhatsApp": "+94752323191",
            "Viber": "+94752323191",
            "MoH": "චෙන්කලාඩි",
            "Latitude": "7.7851129",
            "Longitude": "81.5911329"
        },
        {
            "District": "මඩකලපුව",
            "Name": "Alif Medicare",
            "Address": "මැකාවූර් පාර, එරාවූර්",
            "Phone": "+94772247157",
            "WhatsApp": "+94772247157",
            "Viber": "+94772247157",
            "MoH": "එරාවූර්",
            "Latitude": "7.7768972",
            "Longitude": "81.6042028"
        },
        {
            "District": "මඩකලපුව",
            "Name": "Ifham Pharmacy",
            "Address": "271 ඒ, ප්රධාන වීදිය, එරාවූර්",
            "Phone": "+94652241777",
            "WhatsApp": "+94778214548",
            "Viber": "",
            "MoH": "එරාවූර්",
            "Latitude": "7.773132",
            "Longitude": "81.6094175"
        },
        {
            "District": "මඩකලපුව",
            "Name": "New Fanoona Pharmacy",
            "Address": "AKM ROW, Eravur-3",
            "Phone": "+94652241071",
            "WhatsApp": "+94772364264",
            "Viber": "",
            "MoH": "එරාවූර්",
            "Latitude": "7.7777198",
            "Longitude": "81.6048647"
        },
        {
            "District": "මඩකලපුව",
            "Name": "New Hafees Medical",
            "Address": "18, එරාවූර්, පුන්නිකුඩා පාර",
            "Phone": "+94652240434",
            "WhatsApp": "+94773815318",
            "Viber": "",
            "MoH": "එරාවූර්",
            "Latitude": "7.8224592",
            "Longitude": "81.6110772"
        },
        {
            "District": "මඩකලපුව",
            "Name": "United Pharmacy",
            "Address": "37, ප්රධාන වීදිය, එරාවූර්",
            "Phone": "+9400000000-",
            "WhatsApp": "+94773019611",
            "Viber": "",
            "MoH": "එරාවූර්",
            "Latitude": "7.7768972",
            "Longitude": "81.6042028"
        },
        {
            "District": "මඩකලපුව",
            "Name": "Gayathri Pharmacy",
            "Address": "රෝහල් පාර, කලුවන්චිකුඩි",
            "Phone": "+94652250036",
            "WhatsApp": "+94765352535",
            "Viber": "",
            "MoH": "කළුවන්චිකුඩි",
            "Latitude": "7.517668",
            "Longitude": "81.7851532"
        },
        {
            "District": "මඩකලපුව",
            "Name": "Selva Pharmacy",
            "Address": "ප්රධාන වීදිය, කළුවන්චිකුඩි",
            "Phone": "+94652251960",
            "WhatsApp": "+94752264011",
            "Viber": "+94752264011",
            "MoH": "කළුවන්චිකුඩි",
            "Latitude": "7.5176524",
            "Longitude": "81.7873627"
        },
        {
            "District": "මඩකලපුව",
            "Name": "Sheron Pharmacy & Baby care",
            "Address": "ප්රධාන වීදිය, පෙරියියා කල්ලාර්",
            "Phone": "+94771792840",
            "WhatsApp": "+94778367504",
            "Viber": "+94778367504",
            "MoH": "කළුවන්චිකුඩි",
            "Latitude": "7.4737705",
            "Longitude": "81.807972"
        },
        {
            "District": "මඩකලපුව",
            "Name": "Boots Pharmacy",
            "Address": "66, ප්රධාන පාර, කට්ටන්කුඩි -30",
            "Phone": "+94775025874",
            "WhatsApp": "+94775025874",
            "Viber": "",
            "MoH": "කට්ටන්කුඩි",
            "Latitude": "7.6812487",
            "Longitude": "81.728486"
        },
        {
            "District": "මඩකලපුව",
            "Name": "Central Pharmacy",
            "Address": "288, බීච් පාර, කට්ටන්කුඩි",
            "Phone": "+94652059770",
            "WhatsApp": "",
            "Viber": "",
            "MoH": "කට්ටන්කුඩි",
            "Latitude": "7.683155",
            "Longitude": "81.7347191"
        },
        {
            "District": "මඩකලපුව",
            "Name": "Jusla Pharmacy",
            "Address": "අංක 1558, ප්රධාන වීදිය, කට්ටන්කුඩි -06",
            "Phone": "+94766755042",
            "WhatsApp": "+94766755042",
            "Viber": "",
            "MoH": "කට්ටන්කුඩි",
            "Latitude": "7.6766685",
            "Longitude": "81.7309047"
        },
        {
            "District": "මඩකලපුව",
            "Name": "New Life Pharmacy",
            "Address": "116 ඒ, ඒඑච්එම්. ෆොසි මවාහා, නිව් කතන්කුඩි -09",
            "Phone": "+94771755645",
            "WhatsApp": "+94771755645",
            "Viber": "",
            "MoH": "කට්ටන්කුඩි",
            "Latitude": "7.6903571",
            "Longitude": "81.7330557"
        },
        {
            "District": "මඩකලපුව",
            "Name": "Rizzly Pharmacy",
            "Address": "ප්රධාන වීදිය, කට්ටන්කුඩි",
            "Phone": "+94652246999",
            "WhatsApp": "+94773920823",
            "Viber": "+94773920823",
            "MoH": "කට්ටන්කුඩි",
            "Latitude": "7.6862808",
            "Longitude": "81.7255764"
        },
        {
            "District": "මඩකලපුව",
            "Name": "Family pharmacy",
            "Address": "25, ප්රධාන ශාන්ත, කට්ටන්කුඩි",
            "Phone": "+94777800377",
            "WhatsApp": "+94774004578",
            "Viber": "",
            "MoH": "කට්ටන්කුඩි",
            "Latitude": "7.68002",
            "Longitude": "81.7292462"
        },
        {
            "District": "මඩකලපුව",
            "Name": "Santhively Channeling Centre",
            "Address": "ප්රධාන වීදිය, අසනීප",
            "Phone": "+94652058814",
            "WhatsApp": "",
            "Viber": "",
            "MoH": "කිරාන්",
            "Latitude": "7.8471034",
            "Longitude": "81.5541579"
        },
        {
            "District": "මඩකලපුව",
            "Name": "Mikka Medical",
            "Address": "19, ග්රෑන්ඩ් මුස්ලිම් ආර්ඩී, ඔඩමවාඩි -1",
            "Phone": "+94652257050",
            "WhatsApp": "+94774930340",
            "Viber": "+94774930340",
            "MoH": "ඔඩමාවඩි",
            "Latitude": "7.9152589",
            "Longitude": "81.5208775"
        },
        {
            "District": "මඩකලපුව",
            "Name": "Zattra Pharmacy",
            "Address": "ජුම්මා මුස්ලිම් පල්ලිය, ඔඩමවාඩි -1",
            "Phone": "+94766689060",
            "WhatsApp": "+94766689060",
            "Viber": "",
            "MoH": "ඔඩමාවඩි",
            "Latitude": "7.9144407",
            "Longitude": "81.5206887"
        },
        {
            "District": "මඩකලපුව",
            "Name": "MCR pharmacy",
            "Address": "වෙළඳපල පාර මීරාවොඩයි",
            "Phone": "+94752012888",
            "WhatsApp": "+94752012888",
            "Viber": "+94752012888",
            "MoH": "ඔඩමාවඩි",
            "Latitude": "7.9028628",
            "Longitude": "81.5191297"
        },
        {
            "District": "මඩකලපුව",
            "Name": "Sivan pharmacy",
            "Address": "ප්රධාන ශා ST, Kokkaddisolai",
            "Phone": "+94778900386",
            "WhatsApp": "+94753800386",
            "Viber": "",
            "MoH": "පද්ඩිපාලෙයි",
            "Latitude": "",
            "Longitude": ""
        },
        {
            "District": "මඩකලපුව",
            "Name": "GoodWill Hospital Pharmacy",
            "Address": "ප්රධාන වීදිය, වලයිචෙනයි.",
            "Phone": "+94776616677",
            "WhatsApp": "+94750634001",
            "Viber": "+94750634001",
            "MoH": "වලයිචෙනයි",
            "Latitude": "7.920789",
            "Longitude": "81.5311581"
        },
        {
            "District": "මඩකලපුව",
            "Name": "Seemass Pharmacy",
            "Address": "එම්පීසීඑස් පාර, සෙමානෝඩායි, වලයිචෙනයි",
            "Phone": "+94652258800",
            "WhatsApp": "+94771454548",
            "Viber": "+94771454548",
            "MoH": "වලයිචෙනයි",
            "Latitude": "7.9075313",
            "Longitude": "81.5248739"
        },
        {
            "District": "මඩකලපුව",
            "Name": "Harshigashini Pharmacy",
            "Address": "ප්රධාන වීදිය, වීරචෙනෙයි, පලුගම්",
            "Phone": "+94757016286",
            "WhatsApp": "",
            "Viber": "",
            "MoH": "වෙල්ලවේලි",
            "Latitude": "",
            "Longitude": ""
        },
        {
            "District": "කොළඹ",
            "Name": "Gagana Pharmacy",
            "Address": "අංක 06, යතියන්තෝටා පාර, අවිස්සාවෙල්ලා",
            "Phone": "+94362234337",
            "WhatsApp": "+94760741668",
            "Viber": "+94760741668",
            "MoH": "අවිස්සාවේල්ල",
            "Latitude": "6.9529386",
            "Longitude": "80.2125941"
        },
        {
            "District": "කොළඹ",
            "Name": "Rajya Osusala",
            "Address": "40, කොළඹ පාර, අවිස්සාවෙල්ලා",
            "Phone": "362222501",
            "WhatsApp": "+94701902750",
            "Viber": "+94701902750",
            "MoH": "අවිස්සාවේල්ල",
            "Latitude": "6.8922241",
            "Longitude": "79.856062"
        },
        {
            "District": "කොළඹ",
            "Name": "Elite Pharmacy",
            "Address": "අංක 490 / ඒ, තලන්ගම උතුර, බට්ටරමුල්ල",
            "Phone": "+94112788197",
            "WhatsApp": "",
            "Viber": "",
            "MoH": "බත්තරමුල්ල",
            "Latitude": "6.9168782",
            "Longitude": "79.9317302"
        },
        {
            "District": "කොළඹ",
            "Name": "Healthguard Pharmacies, Thalawathugoda",
            "Address": "708 / ඒ, මැඩිවෙලා පාර, තලාවතුගොඩ",
            "Phone": "+94711528800",
            "WhatsApp": "+94764477666",
            "Viber": "",
            "MoH": "බත්තරමුල්ල",
            "Latitude": "6.8744499",
            "Longitude": "79.9334383"
        },
        {
            "District": "කොළඹ",
            "Name": "Nawala Chemist",
            "Address": "අංක 565, නවාලා පාර, කොස්වත්ත, රාජගිරිය",
            "Phone": "+94777218469",
            "WhatsApp": "",
            "Viber": "",
            "MoH": "බත්තරමුල්ල",
            "Latitude": "6.9015408",
            "Longitude": "79.8939021"
        },
        {
            "District": "කොළඹ",
            "Name": "Reward Pharmacy & Grocery",
            "Address": "977/6 සී, පන්නිපිත පාර, පලත්තත්ත, බට්ටරමුල්ල",
            "Phone": "+94714433970",
            "WhatsApp": "",
            "Viber": "",
            "MoH": "බත්තරමුල්ල",
            "Latitude": "6.8877528",
            "Longitude": "79.9322211"
        },
        {
            "District": "කොළඹ",
            "Name": "Suwahasa",
            "Address": "අංක 285, පන්නිපිටිය පාර, පෙලවත්ත",
            "Phone": "+94717339173",
            "WhatsApp": "+94717339173",
            "Viber": "+94717339173",
            "MoH": "බත්තරමුල්ල",
            "Latitude": "6.8459069",
            "Longitude": "79.9530948"
        },
        {
            "District": "කොළඹ",
            "Name": "New Koswatta Chemist",
            "Address": "250 / බී, කඩුවෙලා පාර, කොස්වත්ත",
            "Phone": "+94112791717",
            "WhatsApp": "+94777137431",
            "Viber": "+94777137431",
            "MoH": "බත්තරමුල්ල",
            "Latitude": "6.906092",
            "Longitude": "79.9286786"
        },
        {
            "District": "කොළඹ",
            "Name": "Isuru Pharmacy",
            "Address": "107 බී, ප්රධාන වීදිය, බට්ටරමුල්ල",
            "Phone": "+94716225095",
            "WhatsApp": "+94716225095",
            "Viber": "+94716225095",
            "MoH": "බත්තරමුල්ල",
            "Latitude": "6.9019207",
            "Longitude": "79.9171109"
        },
        {
            "District": "කොළඹ",
            "Name": "Nawala Pharma",
            "Address": "අංක 509/2, නවාලා පාර, කොස්වත, රාජගිරියා",
            "Phone": "112873758",
            "WhatsApp": "+94777280001",
            "Viber": "+94776064904",
            "MoH": "බත්තරමුල්ල",
            "Latitude": "6.898978",
            "Longitude": "79.8932508"
        },
        {
            "District": "කොළඹ",
            "Name": "Apco Pharmacy",
            "Address": "අංක 10, පැන්ගනන්ද මාවත, කොළඹ 15",
            "Phone": "+94777888073",
            "WhatsApp": "",
            "Viber": "",
            "MoH": "කොළඹ මහ නගර සභාව",
            "Latitude": "6.963227",
            "Longitude": "79.8710886"
        },
        {
            "District": "කොළඹ",
            "Name": "B well Pharmacy",
            "Address": "164, ගාල්ල පාර, කොලො 04",
            "Phone": "+94773470446",
            "WhatsApp": "+94773470446",
            "Viber": "+94773470446",
            "MoH": "කොළඹ මහ නගර සභාව",
            "Latitude": "6.8888815",
            "Longitude": "79.8568282"
        },
        {
            "District": "කොළඹ",
            "Name": "Bambalapitiya Pharmacy",
            "Address": "අංක 21, ගාල්ල පාර, කොළඹ 4",
            "Phone": "+94112591822",
            "WhatsApp": "",
            "Viber": "",
            "MoH": "කොළඹ මහ නගර සභාව",
            "Latitude": "6.8943097",
            "Longitude": "79.855337"
        },
        {
            "District": "කොළඹ",
            "Name": "Ceylon Medical",
            "Address": "4 ආ, ෆස්සිස් මංතීරුව, වෙල්ලාවත, කොළඹ 6",
            "Phone": "+94115529767",
            "WhatsApp": "+94778864220",
            "Viber": "",
            "MoH": "කොළඹ මහ නගර සභාව",
            "Latitude": "6.8739368",
            "Longitude": "79.8619339"
        },
        {
            "District": "කොළඹ",
            "Name": "Elvitigala Pharmacy",
            "Address": "අංක 226, නාගලගම් වීදිය, කොළඹ -4.",
            "Phone": "+94777780850",
            "WhatsApp": "+94777780850",
            "Viber": "",
            "MoH": "කොළඹ මහ නගර සභාව",
            "Latitude": "6.8932435",
            "Longitude": "79.8769808"
        },
        {
            "District": "කොළඹ",
            "Name": "Friends Pharmacy",
            "Address": "32/24, හයිලෙවල් පාර, කිරුලාපෝන්",
            "Phone": "+94112512061",
            "WhatsApp": "+94712137671",
            "Viber": "+94711236725",
            "MoH": "කොළඹ මහ නගර සභාව",
            "Latitude": "6.8785131",
            "Longitude": "79.8735429"
        },
        {
            "District": "කොළඹ",
            "Name": "Guardian Drugs Pvt Ltd",
            "Address": "41, හාම්ඩන් පටුමග, කොල් 6",
            "Phone": "+94112366691",
            "WhatsApp": "+94777823149",
            "Viber": "+94777823149",
            "MoH": "කොළඹ මහ නගර සභාව",
            "Latitude": "6.8752335",
            "Longitude": "79.8658926"
        },
        {
            "District": "කොළඹ",
            "Name": "Health Guard (Pvt) Ltd",
            "Address": "",
            "Phone": "+94764477888",
            "WhatsApp": "+94764477888",
            "Viber": "+94764477888",
            "MoH": "කොළඹ මහ නගර සභාව",
            "Latitude": "",
            "Longitude": ""
        },
        {
            "District": "කොළඹ",
            "Name": "Healthguard Pharmacies, Colombo 03",
            "Address": "415, ගාල්ල පාර, කොළඹ 03",
            "Phone": "+94702105841",
            "WhatsApp": "+94764477666",
            "Viber": "",
            "MoH": "කොළඹ මහ නගර සභාව",
            "Latitude": "6.9020293",
            "Longitude": "79.8528223"
        },
        {
            "District": "කොළඹ",
            "Name": "Healthguard Pharmacies, Colombo 07",
            "Address": "139 / ඒ, ධර්මපාල මාවත, කොළඹ 07",
            "Phone": "+94750968608",
            "WhatsApp": "+94764477666",
            "Viber": "",
            "MoH": "කොළඹ මහ නගර සභාව",
            "Latitude": "6.9145877",
            "Longitude": "79.8591049"
        },
        {
            "District": "කොළඹ",
            "Name": "Healthguard Pharmacies, Kirula",
            "Address": "229, කිරුලා පාර, කොළඹ 05",
            "Phone": "+94771359306",
            "WhatsApp": "+94764477666",
            "Viber": "",
            "MoH": "කොළඹ මහ නගර සභාව",
            "Latitude": "6.892562",
            "Longitude": "79.875553"
        },
        {
            "District": "කොළඹ",
            "Name": "Healthguard Pharmacies, Maitland Crescent",
            "Address": "41, මේට්ලන්ඩ් ක්රෙසන්ට්, කොළඹ 7",
            "Phone": "+94769362321",
            "WhatsApp": "+94764477666",
            "Viber": "",
            "MoH": "කොළඹ මහ නගර සභාව",
            "Latitude": "6.9081574",
            "Longitude": "79.8650449"
        },
        {
            "District": "කොළඹ",
            "Name": "Healthguard Pharmacies, Shangri La",
            "Address": "ෂැන්ග්රි ලා සාප්පු සවාරි වෙළඳ සංකීර්ණය, 1A, Center RD, කොළඹ",
            "Phone": "+94750121139",
            "WhatsApp": "+94764477666",
            "Viber": "",
            "MoH": "කොළඹ මහ නගර සභාව",
            "Latitude": "",
            "Longitude": ""
        },
        {
            "District": "කොළඹ",
            "Name": "Healthguard Pharmacies, Thimbirigasyaya",
            "Address": "391, තිම්බිරිගස්යා පාර, කොළඹ 05",
            "Phone": "+94719106969",
            "WhatsApp": "+94764477666",
            "Viber": "",
            "MoH": "කොළඹ මහ නගර සභාව",
            "Latitude": "6.8958681",
            "Longitude": "79.8726117"
        },
        {
            "District": "කොළඹ",
            "Name": "Healthnet International (Pvt) Ltd.",
            "Address": "30/4, පාර්ක් පාර, කොළඹ 5.",
            "Phone": "+94776281957",
            "WhatsApp": "+94777357671",
            "Viber": "",
            "MoH": "කොළඹ මහ නගර සභාව",
            "Latitude": "6.8857297",
            "Longitude": "79.8685199"
        },
        {
            "District": "කොළඹ",
            "Name": "Highlevel Pharmacy",
            "Address": "",
            "Phone": "+94775432206",
            "WhatsApp": "+94775432206",
            "Viber": "",
            "MoH": "කොළඹ මහ නගර සභාව",
            "Latitude": "",
            "Longitude": ""
        },
        {
            "District": "කොළඹ",
            "Name": "Jampattah Pharmacy",
            "Address": "අංක 113, ජම්පා වීදිය, කොළඹ 13",
            "Phone": "+94713383433",
            "WhatsApp": "",
            "Viber": "",
            "MoH": "කොළඹ මහ නගර සභාව",
            "Latitude": "6.9463522",
            "Longitude": "79.8584651"
        },
        {
            "District": "කොළඹ",
            "Name": "Kamazu Pvt Ltd",
            "Address": "135, විද්යාලය ශාන්ත, 16 වන මංතීරුවෙන් ඕෆ්, කොටහේන",
            "Phone": "+94112437415",
            "WhatsApp": "+94712347827",
            "Viber": "",
            "MoH": "කොළඹ මහ නගර සභාව",
            "Latitude": "6.9555296",
            "Longitude": "79.8616284"
        },
        {
            "District": "කොළඹ",
            "Name": "Kirula Pharmacy (Pvt) Ltd",
            "Address": "136/4 ඉහළ මට්ටමේ කොළඹ",
            "Phone": "+94714105257",
            "WhatsApp": "+94714105257",
            "Viber": "+94714105257",
            "MoH": "කොළඹ මහ නගර සභාව",
            "Latitude": "6.878567",
            "Longitude": "79.8756039"
        },
        {
            "District": "කොළඹ",
            "Name": "Kotahena Chemist",
            "Address": "අංක 58, බොන්ජියන් පාර, කොළඹ 13",
            "Phone": "+94766025656",
            "WhatsApp": "",
            "Viber": "",
            "MoH": "කොළඹ මහ නගර සභාව",
            "Latitude": "6.9481687",
            "Longitude": "79.8623151"
        },
        {
            "District": "කොළඹ",
            "Name": "Madanayaka Pharmacy",
            "Address": "",
            "Phone": "+94770211391",
            "WhatsApp": "",
            "Viber": "",
            "MoH": "කොළඹ මහ නගර සභාව",
            "Latitude": "6.9350383",
            "Longitude": "79.8528193"
        },
        {
            "District": "කොළඹ",
            "Name": "Mangal Medicals",
            "Address": "අංක 19, ග්රෑන්ඩ් පාස් පාර, කොළඹ 14",
            "Phone": "+94778002342",
            "WhatsApp": "",
            "Viber": "",
            "MoH": "කොළඹ මහ නගර සභාව",
            "Latitude": "6.9420031",
            "Longitude": "79.8651436"
        },
        {
            "District": "කොළඹ",
            "Name": "Markss HLC (Pvt) Ltd",
            "Address": "",
            "Phone": "+94719326998",
            "WhatsApp": "+94715731941",
            "Viber": "+94715731941",
            "MoH": "කොළඹ මහ නගර සභාව",
            "Latitude": "6.8898135",
            "Longitude": "79.8809416"
        },
        {
            "District": "කොළඹ",
            "Name": "Maxx Pharmacy",
            "Address": "අංක 49, ඔල්කොට් මාවත, කොළඹ 11",
            "Phone": "+94773549639",
            "WhatsApp": "",
            "Viber": "",
            "MoH": "කොළඹ මහ නගර සභාව",
            "Latitude": "6.9342396",
            "Longitude": "79.8500616"
        },
        {
            "District": "කොළඹ",
            "Name": "Medimax Pharmacy",
            "Address": "45, හයිලෙවල් RD, කිරුලාපෝනා",
            "Phone": "117209970",
            "WhatsApp": "+94779230598",
            "Viber": "+94779230598",
            "MoH": "කොළඹ මහ නගර සභාව",
            "Latitude": "6.8787819",
            "Longitude": "79.8742306"
        },
        {
            "District": "කොළඹ",
            "Name": "Mega Pharmacy",
            "Address": "350 ඒ, ගාලේ පාර, වෙල්ලවත්ත",
            "Phone": "+94779179900",
            "WhatsApp": "",
            "Viber": "",
            "MoH": "කොළඹ මහ නගර සභාව",
            "Latitude": "6.8684648",
            "Longitude": "79.8623801"
        },
        {
            "District": "කොළඹ",
            "Name": "Nakeel Pharmacy(Pvt0 Ltd",
            "Address": "144/1, තිම්බිරිගස්යා පාර, කොළඹ 05",
            "Phone": "+94112559915",
            "WhatsApp": "+94776510014",
            "Viber": "+94776510014",
            "MoH": "කොළඹ මහ නගර සභාව",
            "Latitude": "6.8904939",
            "Longitude": "79.8638558"
        },
        {
            "District": "කොළඹ",
            "Name": "Nawaloka Care Pharmacy",
            "Address": "නවලෝකා ප්රාථමික යහපැවැත්ම මධ්යස්ථානය, 6 මේට්ලන්ඩ් ක්රෙසන්ට්, කොල් 7",
            "Phone": "+94779060664",
            "WhatsApp": "+94766696657",
            "Viber": "+94766696657",
            "MoH": "කොළඹ මහ නගර සභාව",
            "Latitude": "6.9111009",
            "Longitude": "79.8666966"
        },
        {
            "District": "කොළඹ",
            "Name": "Nawaloka Hospital Pharmacy",
            "Address": "දේශමුනි එච්.කේ.ාර්මදාස එම්, කොල් 2",
            "Phone": "+94775577111",
            "WhatsApp": "+94770021338",
            "Viber": "+94770021338",
            "MoH": "කොළඹ මහ නගර සභාව",
            "Latitude": "6.9210072",
            "Longitude": "79.8534526"
        },
        {
            "District": "කොළඹ",
            "Name": "New Mahadi Pharmacy (Pvt) Ltd",
            "Address": "63 / ඒ, කොළඹ 11 හි ඔලිහාල් වීදිය.",
            "Phone": "+94772732037",
            "WhatsApp": "+94772732037",
            "Viber": "+94772732037",
            "MoH": "කොළඹ මහ නගර සභාව",
            "Latitude": "6.9385812",
            "Longitude": "79.8512719"
        },
        {
            "District": "කොළඹ",
            "Name": "New Nations Pharmacy",
            "Address": "5, ඩබ්ලිව්. ඩබ්ලිව්.ඒ. සිල්වා එම්, කොල් 6",
            "Phone": "+94112507836",
            "WhatsApp": "+94773577449",
            "Viber": "+94773577449",
            "MoH": "කොළඹ මහ නගර සභාව",
            "Latitude": "6.875917",
            "Longitude": "79.8615334"
        },
        {
            "District": "කොළඹ",
            "Name": "New Pettah Pharmacy",
            "Address": "634 / 2C, hallok Rd, Col 6",
            "Phone": "+94112367509",
            "WhatsApp": "+94773632019",
            "Viber": "+94773632019",
            "MoH": "කොළඹ මහ නගර සභාව",
            "Latitude": "6.8768996",
            "Longitude": "79.86964"
        },
        {
            "District": "කොළඹ",
            "Name": "New Pierson Pharmacy",
            "Address": "56, තර්ස්ටන් පාර, කොල් 3",
            "Phone": "+94112552366",
            "WhatsApp": "+94775541225",
            "Viber": "+94767022355",
            "MoH": "කොළඹ මහ නගර සභාව",
            "Latitude": "6.9034358",
            "Longitude": "79.8584202"
        },
        {
            "District": "කොළඹ",
            "Name": "New Sapphire Medical",
            "Address": "අංක 300, මුතුවෙලා මාවත, කොළඹ 15",
            "Phone": "+94773413783",
            "WhatsApp": "",
            "Viber": "",
            "MoH": "කොළඹ මහ නගර සභාව",
            "Latitude": "6.9656355",
            "Longitude": "79.8673442"
        },
        {
            "District": "කොළඹ",
            "Name": "Rajya Osusala",
            "Address": "LRH පරිශ්ර, බොරෙල්ලා",
            "Phone": "112697660",
            "WhatsApp": "+94701902744",
            "Viber": "+94701902744",
            "MoH": "කොළඹ මහ නගර සභාව",
            "Latitude": "6.9170126",
            "Longitude": "79.8774753"
        },
        {
            "District": "කොළඹ",
            "Name": "Rajya Osusala",
            "Address": "63, ශ්රී බාරොන් ජයතිලකේ එම්.ඩබ්ලිව්, කොළඹ 01",
            "Phone": "112328046",
            "WhatsApp": "+94701902740",
            "Viber": "+94701902740",
            "MoH": "කොළඹ මහ නගර සභාව",
            "Latitude": "6.9378136",
            "Longitude": "79.8436796"
        },
        {
            "District": "කොළඹ",
            "Name": "Rajya Osusala",
            "Address": "85, ගාල්ල පාර, කොළඹ 04",
            "Phone": "+94112559531",
            "WhatsApp": "+94701902741",
            "Viber": "+94701902741",
            "MoH": "කොළඹ මහ නගර සභාව",
            "Latitude": "6.8921339",
            "Longitude": "79.8561513"
        },
        {
            "District": "කොළඹ",
            "Name": "Rajya Osusala",
            "Address": "255, ධර්මපාල මාවත, කොළඹ 07.",
            "Phone": "+94112699225",
            "WhatsApp": "+94701902742",
            "Viber": "+94701902742",
            "MoH": "කොළඹ මහ නගර සභාව",
            "Latitude": "6.9170884",
            "Longitude": "79.8636824"
        },
        {
            "District": "කොළඹ",
            "Name": "Rajya Osusala",
            "Address": "දුම්රිය ස්ථාන පරිශ්රය, කොළඹ කොටුව",
            "Phone": "112336926",
            "WhatsApp": "+94701902743",
            "Viber": "+94701902743",
            "MoH": "කොළඹ මහ නගර සභාව",
            "Latitude": "6.9340366",
            "Longitude": "79.8507202"
        },
        {
            "District": "කොළඹ",
            "Name": "PKP Pharmacy",
            "Address": "අංක 04, හෘද ස්ථානය, කොළඹ 12",
            "Phone": "+94773989668",
            "WhatsApp": "",
            "Viber": "",
            "MoH": "කොළඹ මහ නගර සභාව",
            "Latitude": "6.9360206",
            "Longitude": "79.855829"
        },
        {
            "District": "කොළඹ",
            "Name": "Safeway Center Pharmacy",
            "Address": "අංක 574, ඩෙමටගොඩ පාර, කොළඹ 09",
            "Phone": "+94778999007",
            "WhatsApp": "",
            "Viber": "",
            "MoH": "කොළඹ මහ නගර සභාව",
            "Latitude": "6.9305499",
            "Longitude": "79.8775175"
        },
        {
            "District": "කොළඹ",
            "Name": "Shine-A Pharma",
            "Address": "",
            "Phone": "+94777958999",
            "WhatsApp": "+94777958999",
            "Viber": "+94777958999",
            "MoH": "කොළඹ මහ නගර සභාව",
            "Latitude": "6.8884003",
            "Longitude": "79.8703175"
        },
        {
            "District": "කොළඹ",
            "Name": "Shree Pharmacy",
            "Address": "ජම්පතා වීදිය, කොළඹ 13",
            "Phone": "+94777851909",
            "WhatsApp": "",
            "Viber": "",
            "MoH": "කොළඹ මහ නගර සභාව",
            "Latitude": "6.9467763",
            "Longitude": "79.856878"
        },
        {
            "District": "කොළඹ",
            "Name": "Siri Medical Stores(Pvt)Ltd",
            "Address": "732 ඒ, මරදානා පාර, කොළඹ 10.",
            "Phone": "+94112694842",
            "WhatsApp": "+94773911340",
            "Viber": "+94773911340",
            "MoH": "කොළඹ මහ නගර සභාව",
            "Latitude": "6.9228982",
            "Longitude": "79.8693724"
        },
        {
            "District": "කොළඹ",
            "Name": "Sisira Pharmacy",
            "Address": "",
            "Phone": "+94770822798",
            "WhatsApp": "",
            "Viber": "",
            "MoH": "කොළඹ මහ නගර සභාව",
            "Latitude": "6.9210955",
            "Longitude": "79.860941"
        },
        {
            "District": "කොළඹ",
            "Name": "Talent Pharma",
            "Address": "02, ඩී.එස්.නායක මාවත, CO 08.",
            "Phone": "+94777231112",
            "WhatsApp": "+94777231112",
            "Viber": "+94777231112",
            "MoH": "කොළඹ මහ නගර සභාව",
            "Latitude": "6.9144369",
            "Longitude": "79.8772748"
        },
        {
            "District": "කොළඹ",
            "Name": "Union Chemist (Pvt) Ltd",
            "Address": "",
            "Phone": "+94773483484",
            "WhatsApp": "+94773483484",
            "Viber": "",
            "MoH": "කොළඹ මහ නගර සභාව",
            "Latitude": "6.9177047",
            "Longitude": "79.8630878"
        },
        {
            "District": "කොළඹ",
            "Name": "Union Chemists",
            "Address": "කොළඹ 2",
            "Phone": "+94112692532",
            "WhatsApp": "+94763592765",
            "Viber": "",
            "MoH": "කොළඹ මහ නගර සභාව",
            "Latitude": "6.9177047",
            "Longitude": "79.8630878"
        },
        {
            "District": "කොළඹ",
            "Name": "Union chemists",
            "Address": "නාරහෙන්පිට",
            "Phone": "+94112369827",
            "WhatsApp": "+94763592767",
            "Viber": "",
            "MoH": "කොළඹ මහ නගර සභාව",
            "Latitude": "6.8927528",
            "Longitude": "79.875457"
        },
        {
            "District": "කොළඹ",
            "Name": "USN Pharmacy",
            "Address": "",
            "Phone": "+94777719545",
            "WhatsApp": "",
            "Viber": "+94777719545",
            "MoH": "කොළඹ මහ නගර සභාව",
            "Latitude": "6.8830447",
            "Longitude": "79.8666748"
        },
        {
            "District": "කොළඹ",
            "Name": "Vaigee Pharmacy",
            "Address": "289 ඒ, ගාලේ පාර, කොල් 6",
            "Phone": "+94112360270",
            "WhatsApp": "+94759360272",
            "Viber": "+94759360272",
            "MoH": "කොළඹ මහ නගර සභාව",
            "Latitude": "6.8731499",
            "Longitude": "79.8617193"
        },
        {
            "District": "කොළඹ",
            "Name": "Wellawata Drugs",
            "Address": "122, ව සිල්වා එම්, සීපීඑල් 6",
            "Phone": "+94112505493",
            "WhatsApp": "+94762965180",
            "Viber": "+94762965180",
            "MoH": "කොළඹ මහ නගර සභාව",
            "Latitude": "6.8765824",
            "Longitude": "79.8663998"
        },
        {
            "District": "කොළඹ",
            "Name": "Wellawatha Pharmacy",
            "Address": "222, ගාල්ල පාර, වෙල්ලාවත, කොළඹ 6",
            "Phone": "+94771629878",
            "WhatsApp": "",
            "Viber": "",
            "MoH": "කොළඹ මහ නගර සභාව",
            "Latitude": "6.8718667",
            "Longitude": "79.8617103"
        },
        {
            "District": "කොළඹ",
            "Name": "Wellawatta Medicals",
            "Address": "නැත, 01 ශාන්ත ලෝරන්ස් පාර වෙල්ලවත්ත",
            "Phone": "+94777109914",
            "WhatsApp": "",
            "Viber": "",
            "MoH": "කොළඹ මහ නගර සභාව",
            "Latitude": "6.8724572",
            "Longitude": "79.8619408"
        },
        {
            "District": "කොළඹ",
            "Name": "Wijaya Pharmacy",
            "Address": "107/2, විජයකුමුල්ල මාවත, කොළඹ 05",
            "Phone": "+94112199125",
            "WhatsApp": "+94771177618",
            "Viber": "+94771177618",
            "MoH": "කොළඹ මහ නගර සභාව",
            "Latitude": "6.8907696",
            "Longitude": "79.8716837"
        },
        {
            "District": "කොළඹ",
            "Name": "Wellawatta Raj Pharmacy",
            "Address": "164, ඩබ්ලිව්.ඒ. සිල්වා එම්, කොල් 6",
            "Phone": "+94112367180",
            "WhatsApp": "+94773309336",
            "Viber": "+94773309336",
            "MoH": "කොළඹ මහ නගර සභාව",
            "Latitude": "6.8768796",
            "Longitude": "79.8681585"
        },
        {
            "District": "කොළඹ",
            "Name": "CDEM Pharmacy",
            "Address": "අංක 21, නොරිස් ඇළ පාර, කොළඹ 10.",
            "Phone": "+94117446178",
            "WhatsApp": "+94777981107",
            "Viber": "+94777981107",
            "MoH": "කොළඹ මහ නගර සභාව",
            "Latitude": "6.9227878",
            "Longitude": "79.8658199"
        },
        {
            "District": "කොළඹ",
            "Name": "A Colombo Pharmacy",
            "Address": "UG 93,97, පීපල්ස් උද්යානය, කොළඹ 11",
            "Phone": "+94773771446",
            "WhatsApp": "+94773771446",
            "Viber": "",
            "MoH": "කොළඹ මහ නගර සභාව",
            "Latitude": "6.937864",
            "Longitude": "79.8559947"
        },
        {
            "District": "කොළඹ",
            "Name": "J G Pharmacy",
            "Address": "389, එල්විටිගල මාවත, කොළඹ 05",
            "Phone": "+94767323539",
            "WhatsApp": "+94767323539",
            "Viber": "+94767323539",
            "MoH": "කොළඹ මහ නගර සභාව",
            "Latitude": "6.8964107",
            "Longitude": "79.8772215"
        },
        {
            "District": "කොළඹ",
            "Name": "Maura Pharmacy",
            "Address": "430/3 මෞරා පෙදෙස, හැව්ලොක් පාර, කොළඹ 06",
            "Phone": "+94716825991",
            "WhatsApp": "+94716825991",
            "Viber": "+94716825991",
            "MoH": "කොළඹ මහ නගර සභාව",
            "Latitude": "6.882502",
            "Longitude": "79.868971"
        },
        {
            "District": "කොළඹ",
            "Name": "Sahanco Pharmacy",
            "Address": "46, බේස්ලයින් පාර, කොළඹ 08",
            "Phone": "+94772443807",
            "WhatsApp": "+94772443807",
            "Viber": "+94772443807",
            "MoH": "කොළඹ මහ නගර සභාව",
            "Latitude": "6.9158585",
            "Longitude": "79.8778903"
        },
        {
            "District": "කොළඹ",
            "Name": "Western pharmacy    & super center",
            "Address": "388 / සී බේස්ලයින් පාර වේතගොඩ කොළඹ 09",
            "Phone": "+94773746532",
            "WhatsApp": "",
            "Viber": "",
            "MoH": "කොළඹ මහ නගර සභාව",
            "Latitude": "6.9317316",
            "Longitude": "79.8781423"
        },
        {
            "District": "කොළඹ",
            "Name": "People's York Pharma",
            "Address": "123 / එච්, ඊ.ඩබ්ලිව්. පෙරේරා එම්, කොල් 10",
            "Phone": "+94714811928",
            "WhatsApp": "+94772352181",
            "Viber": "+94774422222",
            "MoH": "කොළඹ මහ නගර සභාව",
            "Latitude": "6.9207144",
            "Longitude": "79.8680537"
        },
        {
            "District": "කොළඹ",
            "Name": "Dhanwanthri Pharmacy",
            "Address": "382, ගාලේ පාර, කොල් 6",
            "Phone": "112362166",
            "WhatsApp": "+94773013774",
            "Viber": "+94773013774",
            "MoH": "කොළඹ මහ නගර සභාව",
            "Latitude": "6.867885",
            "Longitude": "79.8625221"
        },
        {
            "District": "කොළඹ",
            "Name": "Metro Pharmacy",
            "Address": "340, ගාල්ල පාර, කොල් 6",
            "Phone": "+94779677655",
            "WhatsApp": "+94779677655",
            "Viber": "+94778809630",
            "MoH": "කොළඹ මහ නගර සභාව",
            "Latitude": "6.8687053",
            "Longitude": "79.862324"
        },
        {
            "District": "කොළඹ",
            "Name": "Asiri Surgical OPD pharmacy",
            "Address": "21 - කිරිමණ්ඩල මාවත කොළඹ -05",
            "Phone": "+94773444021",
            "WhatsApp": "+94702549519",
            "Viber": "+94702549519",
            "MoH": "කොළඹ මහ නගර සභාව",
            "Latitude": "6.8946111",
            "Longitude": "79.8795427"
        },
        {
            "District": "කොළඹ",
            "Name": "Asiri Central OPD pharmacy",
            "Address": "114 රයිස් කැනල් පාර, කොල්ම්බෝ -10",
            "Phone": "+94773444021",
            "WhatsApp": "+94778254891",
            "Viber": "+94778254891",
            "MoH": "කොළඹ මහ නගර සභාව",
            "Latitude": "6.9203993",
            "Longitude": "79.8658784"
        },
        {
            "District": "කොළඹ",
            "Name": "A Baur & Co Pvt Ltd",
            "Address": "55, ග්රෑන්ඩ්පාස් පාර, කොල් 14",
            "Phone": "+94768200100",
            "WhatsApp": "+94768200100",
            "Viber": "+94768200100",
            "MoH": "කොළඹ මහ නගර සභාව",
            "Latitude": "6.9437233",
            "Longitude": "79.8653541"
        },
        {
            "District": "කොළඹ",
            "Name": "Asiri Medical OPD Pharmacy",
            "Address": "අංක 18:11, කිරුලා පාර, කොළඹ",
            "Phone": "+94774523300",
            "WhatsApp": "+94767248518",
            "Viber": "+94767248518",
            "MoH": "කොළඹ මහ නගර සභාව",
            "Latitude": "6.8934032",
            "Longitude": "79.8743076"
        },
        {
            "District": "කොළඹ",
            "Name": "Asiri Pharmacy",
            "Address": "168/4 / ඒ, බොරෙල්ලා පාර, ගොඩගම",
            "Phone": "+94714296668",
            "WhatsApp": "+94714296668",
            "Viber": "",
            "MoH": "හෝමාගම",
            "Latitude": "6.8518805",
            "Longitude": "80.0325412"
        },
        {
            "District": "කොළඹ",
            "Name": "Asiri Pharmacy",
            "Address": "ගොඩගම",
            "Phone": "+94774785616",
            "WhatsApp": "",
            "Viber": "",
            "MoH": "හෝමාගම",
            "Latitude": "6.8518805",
            "Longitude": "80.0325412"
        },
        {
            "District": "කොළඹ",
            "Name": "Kmp Pharmacy",
            "Address": "159/5 හොරානා පාර, කොට්ටාවා",
            "Phone": "+94115656994",
            "WhatsApp": "",
            "Viber": "+94774522748",
            "MoH": "හෝමාගම",
            "Latitude": "6.8397975",
            "Longitude": "79.9647989"
        },
        {
            "District": "කොළඹ",
            "Name": "Madawa Pharmacy",
            "Address": "මීගෝඩා",
            "Phone": "+94707512103",
            "WhatsApp": "",
            "Viber": "",
            "MoH": "හෝමාගම",
            "Latitude": "6.8516701",
            "Longitude": "80.0324983"
        },
        {
            "District": "කොළඹ",
            "Name": "Meegoda Medi House",
            "Address": "487/1 ඒ, හයෙවල් පාර, මීගෝඩා,",
            "Phone": "+94112752455",
            "WhatsApp": "+94772948700",
            "Viber": "+94772948700",
            "MoH": "හෝමාගම",
            "Latitude": "6.8512025",
            "Longitude": "80.0519781"
        },